{"stops": [{"id": 1, "gisId": 1, "name": "Հ. Բեկնազարյան", "nameEn": "", "street": "Հ. Բեկնազարյան", "address": "", "community": "Աջափնյակ", "latitude": 40.21075754892181, "longitude": 44.47229003985353, "stopType": "BUS", "lot": 1}, {"id": 2, "gisId": 2, "name": "Հ. Բաբաջանյան", "nameEn": "", "street": "Հ. Բաբաջանյան", "address": "", "community": "Ավան", "latitude": 40.21995979610772, "longitude": 44.572531771124375, "stopType": "BUS", "lot": 1}, {"id": 3, "gisId": 3, "name": "Հ. Բաբաջանյան", "nameEn": "", "street": "Հ. Բաբաջանյան", "address": "", "community": "Ավան", "latitude": 40.22039214158413, "longitude": 44.57788152681103, "stopType": "BUS", "lot": 1}, {"id": 4, "gisId": 4, "name": "Ն. Զարյան", "nameEn": "", "street": "Ն. Զարյան", "address": "", "community": "Արաբկիր", "latitude": 40.20446216419761, "longitude": 44.51002747878516, "stopType": "BUS", "lot": 1}, {"id": 5, "gisId": 5, "name": "Ազատության", "nameEn": "", "street": "Ազատության", "address": "", "community": "Արաբկիր", "latitude": 40.20868228865682, "longitude": 44.528646558591845, "stopType": "BUS", "lot": 1}, {"id": 6, "gisId": 6, "name": "Ազատության", "nameEn": "", "street": "Ազատության", "address": "", "community": "Արաբկիր", "latitude": 40.19976876071977, "longitude": 44.52009687297235, "stopType": "BUS", "lot": 1}, {"id": 7, "gisId": 7, "name": "Տիգրան Մեծի", "nameEn": "", "street": "Տիգրան Մեծի", "address": "", "community": "Էրեբունի", "latitude": 40.15595645712486, "longitude": 44.5106637239518, "stopType": "BUS", "lot": 1}, {"id": 8, "gisId": 8, "name": "Տիտոգրադյան", "nameEn": "", "street": "Տիտոգրադյան", "address": "", "community": "Էրեբունի", "latitude": 40.130381093412794, "longitude": 44.52455732056393, "stopType": "BUS", "lot": 1}, {"id": 9, "gisId": 9, "name": "Տիտոգրադյան", "nameEn": "", "street": "Տիտոգրադյան", "address": "", "community": "Էրեբունի", "latitude": 40.130455077040196, "longitude": 44.524384684006016, "stopType": "BUS", "lot": 1}, {"id": 10, "gisId": 10, "name": "Ա. Խանջյան", "nameEn": "", "street": "Ա. Խանջյան", "address": "", "community": "Կենտրոն", "latitude": 40.18113839442143, "longitude": 44.52357567098055, "stopType": "BUS", "lot": 1}, {"id": 11, "gisId": 11, "name": "Հ. Պարոնյան", "nameEn": "", "street": "Հ. Պարոնյան", "address": "", "community": "Կենտրոն", "latitude": 40.18127138976291, "longitude": 44.499029859240636, "stopType": "BUS", "lot": 1}, {"id": 12, "gisId": 12, "name": "Ծովակալ Իսակովի", "nameEn": "", "street": "Ծովակալ Իսակովի", "address": "", "community": "Կենտրոն", "latitude": 40.17414780497729, "longitude": 44.495778016842095, "stopType": "BUS", "lot": 1}, {"id": 13, "gisId": 13, "name": "Ա. Իսահակյան", "nameEn": "", "street": "Ա. Իսահակյան", "address": "", "community": "Կենտրոն", "latitude": 40.184835268133206, "longitude": 44.52425528595271, "stopType": "BUS", "lot": 1}, {"id": 14, "gisId": 14, "name": "Գուսան Շերամի", "nameEn": "", "street": "Գուսան Շերամի", "address": "", "community": "Մալաթիա-Սեբաստիա", "latitude": 40.17802558811051, "longitude": 44.43994934708477, "stopType": "BUS", "lot": 1}, {"id": 15, "gisId": 15, "name": "Րաֆֆու", "nameEn": "", "street": "Րաֆֆու", "address": "", "community": "Մալաթիա-Սեբաստիա", "latitude": 40.17332415098881, "longitude": 44.44006134865234, "stopType": "BUS", "lot": 1}, {"id": 16, "gisId": 16, "name": "Գայի", "nameEn": "", "street": "Գայի", "address": "", "community": "Նոր Նորք", "latitude": 40.19112609599263, "longitude": 44.56740952413031, "stopType": "BUS", "lot": 1}, {"id": 17, "gisId": 17, "name": "Գայի", "nameEn": "", "street": "Գայի", "address": "", "community": "Նոր Նորք", "latitude": 40.190947168677, "longitude": 44.56771737016054, "stopType": "BUS", "lot": 1}, {"id": 18, "gisId": 18, "name": "Արարատյան", "nameEn": "", "street": "Արարատյան", "address": "", "community": "Շենգավիթ", "latitude": 40.132940265381016, "longitude": 44.45741279086764, "stopType": "BUS", "lot": 1}, {"id": 19, "gisId": 19, "name": "Բագրատունյաց", "nameEn": "", "street": "Բագրատունյաց", "address": "", "community": "Շենգավիթ", "latitude": 40.15294067417289, "longitude": 44.48074149972053, "stopType": "BUS", "lot": 1}, {"id": 20, "gisId": 20, "name": "Բագրատունյաց", "nameEn": "", "street": "Բագրատունյաց", "address": "", "community": "Շենգավիթ", "latitude": 40.15336047230805, "longitude": 44.480629651937, "stopType": "BUS", "lot": 1}, {"id": 21, "gisId": 21, "name": "Դրոյի", "nameEn": "", "street": "Դրոյի", "address": "", "community": "Քանաքեռ-Զեյթուն", "latitude": 40.203823180595336, "longitude": 44.54266994356313, "stopType": "BUS", "lot": 1}, {"id": 22, "gisId": 22, "name": "Պ. Սևակի", "nameEn": "", "street": "Պ. Սևակի", "address": "", "community": "Քանաքեռ-Զեյթուն", "latitude": 40.203359152003344, "longitude": 44.54254831295437, "stopType": "BUS", "lot": 1}, {"id": 23, "gisId": 23, "name": "Պ. Սևակի", "nameEn": "", "street": "Պ. Սևակի", "address": "", "community": "Քանաքեռ-Զեյթուն", "latitude": 40.203884525150805, "longitude": 44.54204770803535, "stopType": "BUS", "lot": 1}, {"id": 24, "gisId": 24, "name": "Զ. Քանաքեռցու", "nameEn": "", "street": "Զ. Քանաքեռցու", "address": "", "community": "Քանաքեռ-Զեյթուն", "latitude": 40.22856361102192, "longitude": 44.5502550936977, "stopType": "BUS", "lot": 1}, {"id": 25, "gisId": 25, "name": "Ն. Սաֆարյան", "nameEn": "", "street": "Ն. Սաֆարյան", "address": "", "community": "Ավան", "latitude": 40.217666772203835, "longitude": 44.58303315105916, "stopType": "BUS", "lot": 2}, {"id": 26, "gisId": 26, "name": "Գայի", "nameEn": "", "street": "Գայի", "address": "", "community": "Ավան", "latitude": 40.20865715710217, "longitude": 44.56181049885549, "stopType": "BUS", "lot": 2}, {"id": 27, "gisId": 27, "name": "Հ. Բաբաջանյան", "nameEn": "", "street": "Հ. Բաբաջանյան", "address": "", "community": "Ավան", "latitude": 40.218015761318384, "longitude": 44.58252091340954, "stopType": "BUS", "lot": 2}, {"id": 28, "gisId": 28, "name": "Հ. Աճառյան", "nameEn": "", "street": "Հ. Աճառյան", "address": "", "community": "Ավան", "latitude": 40.213638947079815, "longitude": 44.56240429332354, "stopType": "BUS", "lot": 2}, {"id": 29, "gisId": 29, "name": "Կիևյան", "nameEn": "", "street": "Կիևյան", "address": "", "community": "Արաբկիր", "latitude": 40.19454759189789, "longitude": 44.48776842807058, "stopType": "BUS", "lot": 2}, {"id": 30, "gisId": 30, "name": "Կոմիտասի", "nameEn": "", "street": "Կոմիտասի", "address": "", "community": "Արաբկիր", "latitude": 40.20659026502882, "longitude": 44.51935142492839, "stopType": "BUS", "lot": 2}, {"id": 31, "gisId": 31, "name": "Կոմիտասի", "nameEn": "", "street": "Կոմիտասի", "address": "", "community": "Արաբկիր", "latitude": 40.2065960000055, "longitude": 44.51926299998752, "stopType": "BUS", "lot": 2}, {"id": 32, "gisId": 32, "name": "Վ. Վաղարշյան", "nameEn": "", "street": "Վ. Վաղարշյան", "address": "", "community": "Արաբկիր", "latitude": 40.2035944398316, "longitude": 44.49831654217478, "stopType": "BUS", "lot": 2}, {"id": 33, "gisId": 33, "name": "Էրեբունու", "nameEn": "", "street": "Էրեբունու", "address": "1/10", "community": "Էրեբունի", "latitude": 40.14264514815514, "longitude": 44.51151942887866, "stopType": "BUS", "lot": 2}, {"id": 34, "gisId": 34, "name": "Սարի թաղի 15-րդ", "nameEn": "", "street": "Սարի թաղի 15-րդ", "address": "", "community": "Էրեբունի", "latitude": 40.16274073040054, "longitude": 44.52813752432734, "stopType": "BUS", "lot": 2}, {"id": 35, "gisId": 35, "name": "Տիգրան Մեծի", "nameEn": "", "street": "Տիգրան Մեծի", "address": "", "community": "Կենտրոն", "latitude": 40.165630965296906, "longitude": 44.51329492172333, "stopType": "BUS", "lot": 2}, {"id": 36, "gisId": 36, "name": "Տիգրան Մեծի", "nameEn": "", "street": "Տիգրան Մեծի", "address": "", "community": "Կենտրոն", "latitude": 40.1655609998403, "longitude": 44.513311999848945, "stopType": "BUS", "lot": 2}, {"id": 37, "gisId": 37, "name": "Աթենքի", "nameEn": "", "street": "Աթենքի", "address": "", "community": "Կենտրոն", "latitude": 40.17860453297286, "longitude": 44.49251506331956, "stopType": "BUS", "lot": 2}, {"id": 38, "gisId": 38, "name": "Քրիստափորի", "nameEn": "", "street": "Քրիստափորի", "address": "36", "community": "Կենտրոն", "latitude": 40.163238306402796, "longitude": 44.51228315924049, "stopType": "BUS", "lot": 2}, {"id": 39, "gisId": 39, "name": "Ա. Բաբաջանյան", "nameEn": "", "street": "Ա. Բաբաջանյան", "address": "", "community": "Մալաթիա-Սեբաստիա", "latitude": 40.16240801361901, "longitude": 44.44181878311041, "stopType": "BUS", "lot": 2}, {"id": 40, "gisId": 40, "name": "Հ. Գյուրջյան", "nameEn": "", "street": "Հ. Գյուրջյան", "address": "", "community": "Նոր Նորք", "latitude": 40.1941842657913, "longitude": 44.56265637689034, "stopType": "BUS", "lot": 2}, {"id": 41, "gisId": 41, "name": "Հ. Գյուրջյան", "nameEn": "", "street": "Հ. Գյուրջյան", "address": "", "community": "Նոր Նորք", "latitude": 40.19467569043087, "longitude": 44.562718520043774, "stopType": "BUS", "lot": 2}, {"id": 42, "gisId": 42, "name": "Ա. Արմենակյան", "nameEn": "", "street": "Ա. Արմենակյան", "address": "", "community": "Նորք-Մարաշ", "latitude": 40.18546420990541, "longitude": 44.54267690611436, "stopType": "BUS", "lot": 2}, {"id": 43, "gisId": 43, "name": "Արշակունյաց", "nameEn": "", "street": "Արշակունյաց", "address": "30", "community": "Շենգավիթ", "latitude": 40.15710139571297, "longitude": 44.50157175433307, "stopType": "BUS", "lot": 2}, {"id": 44, "gisId": 44, "name": "Արտաշիսյան", "nameEn": "", "street": "Արտաշիսյան", "address": "", "community": "Շենգավիթ", "latitude": 40.15429410169151, "longitude": 44.47837698061327, "stopType": "BUS", "lot": 2}, {"id": 45, "gisId": 45, "name": "Բագրատունյաց", "nameEn": "", "street": "Բագրատունյաց", "address": "", "community": "Շենգավիթ", "latitude": 40.154188071622315, "longitude": 44.47904413008256, "stopType": "BUS", "lot": 2}, {"id": 46, "gisId": 46, "name": "Գ. Նժդեհի", "nameEn": "", "street": "Գ. Նժդեհի", "address": "", "community": "Շենգավիթ", "latitude": 40.15187831942892, "longitude": 44.49897057143482, "stopType": "BUS", "lot": 2}, {"id": 47, "gisId": 47, "name": "Ազատության", "nameEn": "", "street": "Ազատության", "address": "", "community": "Քանաքեռ-Զեյթուն", "latitude": 40.20197414299235, "longitude": 44.52270137077172, "stopType": "BUS", "lot": 2}, {"id": 48, "gisId": 48, "name": "Ռուբինյանց", "nameEn": "", "street": "Ռուբինյանց", "address": "", "community": "Քանաքեռ-Զեյթուն", "latitude": 40.20057187509198, "longitude": 44.54155331833101, "stopType": "BUS", "lot": 2}, {"id": 49, "gisId": 49, "name": "Հ. Բաբաջանյան", "nameEn": "", "street": "Հ. Բաբաջանյան", "address": "", "community": "Ավան", "latitude": 40.21976305502106, "longitude": 44.56897785814171, "stopType": "BUS", "lot": 3}, {"id": 50, "gisId": 50, "name": "Հ. Բաբաջանյան", "nameEn": "", "street": "Հ. Բաբաջանյան", "address": "", "community": "Ավան", "latitude": 40.21993031543183, "longitude": 44.567310237177814, "stopType": "BUS", "lot": 3}, {"id": 51, "gisId": 51, "name": "Կոմիտասի", "nameEn": "", "street": "Կոմիտասի", "address": "", "community": "Արաբկիր", "latitude": 40.205667098357914, "longitude": 44.50533194661211, "stopType": "BUS", "lot": 3}, {"id": 52, "gisId": 52, "name": "Կոմիտասի", "nameEn": "", "street": "Կոմիտասի", "address": "", "community": "Արաբկիր", "latitude": 40.205572610187915, "longitude": 44.50579436002174, "stopType": "BUS", "lot": 3}, {"id": 53, "gisId": 53, "name": "Կոմիտասի", "nameEn": "", "street": "Կոմիտասի", "address": "", "community": "Արաբկիր", "latitude": 40.20640166280663, "longitude": 44.523347461716035, "stopType": "BUS", "lot": 3}, {"id": 54, "gisId": 54, "name": "Նուբարաշենի", "nameEn": "", "street": "Նուբարաշենի", "address": "1/4", "community": "Նուբարաշեն", "latitude": 40.130323504426265, "longitude": 44.54060578542869, "stopType": "BUS", "lot": 3}, {"id": 55, "gisId": 55, "name": "Մուրացանի", "nameEn": "", "street": "Մուրացանի", "address": "", "community": "Էրեբունի", "latitude": 40.14893458476335, "longitude": 44.516062765184586, "stopType": "BUS", "lot": 3}, {"id": 56, "gisId": 56, "name": "Էրեբունու", "nameEn": "", "street": "Էրեբունու", "address": "", "community": "Էրեբունի", "latitude": 40.14161466268665, "longitude": 44.52534691722651, "stopType": "BUS", "lot": 3}, {"id": 57, "gisId": 57, "name": "Ե. Չարենց", "nameEn": "", "street": "Ե. Չարենց", "address": "75", "community": "Կենտրոն", "latitude": 40.17470321278312, "longitude": 44.52715774083722, "stopType": "BUS", "lot": 3}, {"id": 58, "gisId": 58, "name": "Մ. Նալբանդյան", "nameEn": "", "street": "Մ. Նալբանդյան", "address": "", "community": "Կենտրոն", "latitude": 40.18418340264196, "longitude": 44.52391656799531, "stopType": "BUS", "lot": 3}, {"id": 59, "gisId": 59, "name": "Մ. Նալբանդյան", "nameEn": "", "street": "Մ. Նալբանդյան", "address": "", "community": "Կենտրոն", "latitude": 40.183947287437455, "longitude": 44.524034299143665, "stopType": "BUS", "lot": 3}, {"id": 60, "gisId": 60, "name": "Ագաթանգեղոսի", "nameEn": "", "street": "Ագաթանգեղոսի", "address": "", "community": "Կենտրոն", "latitude": 40.17190570698283, "longitude": 44.5107158270738, "stopType": "BUS", "lot": 3}, {"id": 61, "gisId": 61, "name": "Անդրանիկ Զորավարի", "nameEn": "", "street": "Անդրանիկ Զորավարի", "address": "", "community": "Մալաթիա-Սեբաստիա", "latitude": 40.166831231975834, "longitude": 44.444258520614305, "stopType": "BUS", "lot": 3}, {"id": 62, "gisId": 62, "name": "Ծովակալ Իսակովի", "nameEn": "", "street": "Ծովակալ Իսակովի", "address": "", "community": "Մալաթիա-Սեբաստիա", "latitude": 40.1573434554362, "longitude": 44.461182300123106, "stopType": "BUS", "lot": 3}, {"id": 63, "gisId": 63, "name": "Գուսան Շերամի", "nameEn": "", "street": "Գուսան Շերամի", "address": "", "community": "Մալաթիա-Սեբաստիա", "latitude": 40.18148069617724, "longitude": 44.442071953957615, "stopType": "BUS", "lot": 3}, {"id": 64, "gisId": 64, "name": "Ֆ. Նանսենի", "nameEn": "", "street": "Ֆ. Նանսենի", "address": "", "community": "Նոր Նորք", "latitude": 40.19964616064192, "longitude": 44.56047350914519, "stopType": "BUS", "lot": 3}, {"id": 65, "gisId": 65, "name": "Վիլնյուսի", "nameEn": "", "street": "Վիլնյուսի", "address": "", "community": "Նոր Նորք", "latitude": 40.17374122058088, "longitude": 44.56897813693157, "stopType": "BUS", "lot": 3}, {"id": 66, "gisId": 66, "name": "Դավիթ Բեկի", "nameEn": "", "street": "Դավիթ Բեկի", "address": "", "community": "Նոր Նորք", "latitude": 40.17988717934996, "longitude": 44.56100260638524, "stopType": "BUS", "lot": 3}, {"id": 67, "gisId": 67, "name": "Դավիթ Բեկի", "nameEn": "", "street": "Դավիթ Բեկի", "address": "", "community": "Նոր Նորք", "latitude": 40.18016045004482, "longitude": 44.56151825516339, "stopType": "BUS", "lot": 3}, {"id": 68, "gisId": 68, "name": "Գ. Նժդեհի", "nameEn": "", "street": "Գ. Նժդեհի", "address": "", "community": "Շենգավիթ", "latitude": 40.15083645393929, "longitude": 44.502745279671046, "stopType": "BUS", "lot": 3}, {"id": 69, "gisId": 69, "name": "Արտաշատի", "nameEn": "", "street": "Արտաշատի", "address": "", "community": "Շենգավիթ", "latitude": 40.11495449805171, "longitude": 44.477417486727724, "stopType": "BUS", "lot": 3}, {"id": 70, "gisId": 70, "name": "Ա. Չեխովի", "nameEn": "", "street": "Ա. Չեխովի", "address": "", "community": "Շենգավիթ", "latitude": 40.15059660564895, "longitude": 44.47660105519463, "stopType": "BUS", "lot": 3}, {"id": 71, "gisId": 71, "name": "Բ. Ֆանարջյան", "nameEn": "", "street": "Բ. Ֆանարջյան", "address": "", "community": "Քանաքեռ-Զեյթուն", "latitude": 40.21604801500395, "longitude": 44.54464160282775, "stopType": "BUS", "lot": 3}, {"id": 72, "gisId": 72, "name": "Հ. Ներսիսյան", "nameEn": "", "street": "Հ. Ներսիսյան", "address": "", "community": "Քանաքեռ-Զեյթուն", "latitude": 40.20451753006006, "longitude": 44.53174488491859, "stopType": "BUS", "lot": 3}, {"id": 73, "gisId": 73, "name": "Սիլիկյան թաղամաս 7-րդ", "nameEn": "", "street": "Սիլիկյան թաղամաս 7-րդ", "address": "", "community": "Աջափնյակ", "latitude": 40.21927669176601, "longitude": 44.4387602697707, "stopType": "BUS", "lot": 4}, {"id": 74, "gisId": 74, "name": "Հ. Բաբաջանյան", "nameEn": "", "street": "Հ. Բաբաջանյան", "address": "", "community": "Ավան", "latitude": 40.219402762327675, "longitude": 44.56420221166279, "stopType": "BUS", "lot": 4}, {"id": 75, "gisId": 75, "name": "Հ. Բաբաջանյան", "nameEn": "", "street": "Հ. Բաբաջանյան", "address": "", "community": "Ավան", "latitude": 40.21954460969603, "longitude": 44.56403787404871, "stopType": "BUS", "lot": 4}, {"id": 76, "gisId": 76, "name": "Ն. Սաֆարյան", "nameEn": "", "street": "Ն. Սաֆարյան", "address": "", "community": "Ավան", "latitude": 40.211047862668835, "longitude": 44.575259866349846, "stopType": "BUS", "lot": 4}, {"id": 77, "gisId": 77, "name": "Մարշալ Բաղրամյան", "nameEn": "", "street": "Մարշալ Բաղրամյան", "address": "", "community": "Արաբկիր", "latitude": 40.19286247192557, "longitude": 44.49950875812272, "stopType": "BUS", "lot": 4}, {"id": 78, "gisId": 78, "name": "Մարշալ Բաղրամյան", "nameEn": "", "street": "Մարշալ Բաղրամյան", "address": "", "community": "Արաբկիր", "latitude": 40.19272930571293, "longitude": 44.49923347294649, "stopType": "BUS", "lot": 4}, {"id": 79, "gisId": 79, "name": "Կիևյան", "nameEn": "", "street": "Կիևյան", "address": "", "community": "Արաբկիր", "latitude": 40.19751911921201, "longitude": 44.492257607202895, "stopType": "BUS", "lot": 4}, {"id": 80, "gisId": 80, "name": "Կիևյան", "nameEn": "", "street": "Կիևյան", "address": "", "community": "Արաբկիր", "latitude": 40.19665344799835, "longitude": 44.491257731059484, "stopType": "BUS", "lot": 4}, {"id": 81, "gisId": 81, "name": "Ռոստովյան", "nameEn": "", "street": "Ռոստովյան", "address": "", "community": "Էրեբունի", "latitude": 40.150741118607804, "longitude": 44.5185708026005, "stopType": "BUS", "lot": 4}, {"id": 82, "gisId": 82, "name": "Մ. Հերացու", "nameEn": "", "street": "Մ. Հերացու", "address": "", "community": "Կենտրոն", "latitude": 40.19088827477419, "longitude": 44.5294513780787, "stopType": "BUS", "lot": 4}, {"id": 83, "gisId": 83, "name": "Մ. Խորենացու", "nameEn": "", "street": "Մ. Խորենացու", "address": "26", "community": "Կենտրոն", "latitude": 40.17298454180323, "longitude": 44.51109052870502, "stopType": "BUS", "lot": 4}, {"id": 84, "gisId": 84, "name": "Սեբաստիայի", "nameEn": "", "street": "Սեբաստիայի", "address": "", "community": "Մալաթիա-Սեբաստիա", "latitude": 40.17323411176495, "longitude": 44.45744983574139, "stopType": "BUS", "lot": 4}, {"id": 85, "gisId": 85, "name": "Սեբաստիայի", "nameEn": "", "street": "Սեբաստիայի", "address": "", "community": "Մալաթիա-Սեբաստիա", "latitude": 40.174719448244055, "longitude": 44.45793379870591, "stopType": "BUS", "lot": 4}, {"id": 86, "gisId": 86, "name": "Ա. Միկոյան", "nameEn": "", "street": "Ա. Միկոյան", "address": "", "community": "Նոր Նորք", "latitude": 40.181234801744786, "longitude": 44.57837480585266, "stopType": "BUS", "lot": 4}, {"id": 87, "gisId": 87, "name": "Գ. Հովսեփյան", "nameEn": "", "street": "Գ. Հովսեփյան", "address": "", "community": "Նորք-Մարաշ", "latitude": 40.17090222455808, "longitude": 44.5379210114456, "stopType": "BUS", "lot": 4}, {"id": 88, "gisId": 88, "name": "Գ. Հովսեփյան", "nameEn": "", "street": "Գ. Հովսեփյան", "address": "", "community": "Նորք-Մարաշ", "latitude": 40.17107876597235, "longitude": 44.53787449131477, "stopType": "BUS", "lot": 4}, {"id": 89, "gisId": 89, "name": "Նուբարաշենի 9-րդ", "nameEn": "", "street": "Նուբարաշենի 9-րդ", "address": "", "community": "Նուբարաշեն", "latitude": 40.08704898372372, "longitude": 44.55075943440053, "stopType": "BUS", "lot": 4}, {"id": 90, "gisId": 90, "name": "Արշակունյաց", "nameEn": "", "street": "Արշակունյաց", "address": "", "community": "Շենգավիթ", "latitude": 40.1479498837802, "longitude": 44.497477174332225, "stopType": "BUS", "lot": 4}, {"id": 91, "gisId": 91, "name": "Արտաշիսյան", "nameEn": "", "street": "Արտաշիսյան", "address": "", "community": "Շենգավիթ", "latitude": 40.1507733718937, "longitude": 44.47372791281302, "stopType": "BUS", "lot": 4}, {"id": 92, "gisId": 92, "name": "Բագրատունյաց", "nameEn": "", "street": "Բագրատունյաց", "address": "", "community": "Շենգավիթ", "latitude": 40.14643737518476, "longitude": 44.4897984398462, "stopType": "BUS", "lot": 4}, {"id": 93, "gisId": 93, "name": "Պ. Սևակի", "nameEn": "", "street": "Պ. Սևակի", "address": "", "community": "Քանաքեռ-Զեյթուն", "latitude": 40.20885774818655, "longitude": 44.53513654941232, "stopType": "BUS", "lot": 4}, {"id": 94, "gisId": 94, "name": "Պ. Սևակի", "nameEn": "", "street": "Պ. Սևակի", "address": "", "community": "Քանաքեռ-Զեյթուն", "latitude": 40.208935240968664, "longitude": 44.53528378012246, "stopType": "BUS", "lot": 4}, {"id": 95, "gisId": 95, "name": "Դավիթ Անհաղթի", "nameEn": "", "street": "Դավիթ Անհաղթի", "address": "", "community": "Քանաքեռ-Զեյթուն", "latitude": 40.199345668367975, "longitude": 44.536940566054355, "stopType": "BUS", "lot": 4}, {"id": 96, "gisId": 96, "name": "Դավիթ Անհաղթի", "nameEn": "", "street": "Դավիթ Անհաղթի", "address": "", "community": "Քանաքեռ-Զեյթուն", "latitude": 40.19939695220762, "longitude": 44.53751256095599, "stopType": "BUS", "lot": 4}, {"id": 97, "gisId": 97, "name": "Հ. Բեկնազարյան", "nameEn": "", "street": "Հ. Բեկնազարյան", "address": "", "community": "Աջափնյակ", "latitude": 40.211507868593316, "longitude": 44.47488267469576, "stopType": "BUS", "lot": 5}, {"id": 98, "gisId": 98, "name": "Հ. Աճառյան", "nameEn": "", "street": "Հ. Աճառյան", "address": "", "community": "Ավան", "latitude": 40.218132674083655, "longitude": 44.56205375197918, "stopType": "BUS", "lot": 5}, {"id": 99, "gisId": 99, "name": "Հ. Բաբաջանյան", "nameEn": "", "street": "Հ. Բաբաջանյան", "address": "", "community": "Ավան", "latitude": 40.22046061056882, "longitude": 44.576035020799665, "stopType": "BUS", "lot": 5}, {"id": 100, "gisId": 100, "name": "Մարշալ Խուդյակովի", "nameEn": "", "street": "Մարշալ Խուդյակովի", "address": "", "community": "Ավան", "latitude": 40.21580384097456, "longitude": 44.579558319960555, "stopType": "BUS", "lot": 5}, {"id": 101, "gisId": 101, "name": "Մարշալ Խուդյակովի", "nameEn": "", "street": "Մարշալ Խուդյակովի", "address": "", "community": "Ավան", "latitude": 40.215661807446494, "longitude": 44.57911105383208, "stopType": "BUS", "lot": 5}, {"id": 102, "gisId": 102, "name": "Ն. Ադոնցի", "nameEn": "", "street": "Ն. Ադոնցի", "address": "", "community": "Արաբկիր", "latitude": 40.210177933165156, "longitude": 44.5279073860171, "stopType": "BUS", "lot": 5}, {"id": 103, "gisId": 103, "name": "Կոմիտասի", "nameEn": "", "street": "Կոմիտասի", "address": "", "community": "Արաբկիր", "latitude": 40.20284875526589, "longitude": 44.49924355704458, "stopType": "BUS", "lot": 5}, {"id": 104, "gisId": 104, "name": "Ա. Միկոյան", "nameEn": "", "street": "Ա. Միկոյան", "address": "64/6 շենքի դիմաց", "community": "Դավթաշեն", "latitude": 40.22019598775466, "longitude": 44.50191393827771, "stopType": "BUS", "lot": 5}, {"id": 105, "gisId": 105, "name": "Ազատամարտիկների", "nameEn": "", "street": "Ազատամարտիկների", "address": "", "community": "Էրեբունի", "latitude": 40.14570495561924, "longitude": 44.52239497804584, "stopType": "BUS", "lot": 5}, {"id": 106, "gisId": 106, "name": "Ազատամարտիկների", "nameEn": "", "street": "Ազատամարտիկների", "address": "", "community": "Էրեբունի", "latitude": 40.14602619615213, "longitude": 44.5222184474235, "stopType": "BUS", "lot": 5}, {"id": 107, "gisId": 107, "name": "Մ. Խորենացու", "nameEn": "", "street": "Մ. Խորենացու", "address": "", "community": "Էրեբունի", "latitude": 40.16312940929488, "longitude": 44.51630456680237, "stopType": "BUS", "lot": 5}, {"id": 108, "gisId": 108, "name": "Ե. Չարենց", "nameEn": "", "street": "Ե. Չարենց", "address": "ԵՊՀ", "community": "Կենտրոն", "latitude": 40.181908348991165, "longitude": 44.52759319077317, "stopType": "BUS", "lot": 5}, {"id": 109, "gisId": 109, "name": "Ա. Բաբաջանյան", "nameEn": "", "street": "Ա. Բաբաջանյան", "address": "", "community": "Մալաթիա-Սեբաստիա", "latitude": 40.16563537287423, "longitude": 44.441314928041585, "stopType": "BUS", "lot": 5}, {"id": 110, "gisId": 110, "name": "Ս. Օհանովի", "nameEn": "", "street": "Ս. Օհանովի", "address": "", "community": "Մալաթիա-Սեբաստիա", "latitude": 40.18066503536319, "longitude": 44.44448883609098, "stopType": "BUS", "lot": 5}, {"id": 111, "gisId": 111, "name": "Ս. Օհանովի", "nameEn": "", "street": "Ս. Օհանովի", "address": "", "community": "Մալաթիա-Սեբաստիա", "latitude": 40.18047764992371, "longitude": 44.4446891987476, "stopType": "BUS", "lot": 5}, {"id": 112, "gisId": 112, "name": "Սեբաստիայի", "nameEn": "", "street": "Սեբաստիայի", "address": "", "community": "Մալաթիա-Սեբաստիա", "latitude": 40.16721688555097, "longitude": 44.45720396918788, "stopType": "BUS", "lot": 5}, {"id": 113, "gisId": 113, "name": "Վիլնյուսի", "nameEn": "", "street": "Վիլնյուսի", "address": "", "community": "Նոր Նորք", "latitude": 40.1732973062258, "longitude": 44.564968320731474, "stopType": "BUS", "lot": 5}, {"id": 114, "gisId": 114, "name": "Նուբարաշենի 9-րդ", "nameEn": "", "street": "Նուբարաշենի 9-րդ", "address": "", "community": "Նուբարաշեն", "latitude": 40.0894237119348, "longitude": 44.548752284290536, "stopType": "BUS", "lot": 5}, {"id": 115, "gisId": 115, "name": "Արտաշիսյան", "nameEn": "", "street": "Արտաշիսյան", "address": "", "community": "Շենգավիթ", "latitude": 40.14767030344181, "longitude": 44.46819516397571, "stopType": "BUS", "lot": 5}, {"id": 116, "gisId": 116, "name": "Արշակունյաց", "nameEn": "", "street": "Արշակունյաց", "address": "", "community": "Շենգավիթ", "latitude": 40.1452665631015, "longitude": 44.49708578128387, "stopType": "BUS", "lot": 5}, {"id": 117, "gisId": 117, "name": "Պ. Սևակի", "nameEn": "", "street": "Պ. Սևակի", "address": "", "community": "Քանաքեռ-Զեյթուն", "latitude": 40.211368899954806, "longitude": 44.53233817396761, "stopType": "BUS", "lot": 5}, {"id": 118, "gisId": 118, "name": "Պ. Սևակի", "nameEn": "", "street": "Պ. Սևակի", "address": "", "community": "Քանաքեռ-Զեյթուն", "latitude": 40.21121806296329, "longitude": 44.53229835468544, "stopType": "BUS", "lot": 5}, {"id": 119, "gisId": 119, "name": "Զ. Քանաքեռցու", "nameEn": "", "street": "Զ. Քանաքեռցու", "address": "", "community": "Քանաքեռ-Զեյթուն", "latitude": 40.211769315001966, "longitude": 44.5319050919465, "stopType": "BUS", "lot": 5}, {"id": 120, "gisId": 120, "name": "Զ. Քանաքեռցու", "nameEn": "", "street": "Զ. Քանաքեռցու", "address": "", "community": "Քանաքեռ-Զեյթուն", "latitude": 40.21216267037109, "longitude": 44.53205512044752, "stopType": "BUS", "lot": 5}, {"id": 121, "gisId": 121, "name": "Կ. Հալաբյան", "nameEn": "", "street": "Կ. Հալաբյան", "address": "", "community": "Աջափնյակ", "latitude": 40.203591930723086, "longitude": 44.48020858036176, "stopType": "BUS", "lot": 6}, {"id": 122, "gisId": 122, "name": "Ն. Սաֆարյան", "nameEn": "", "street": "Ն. Սաֆարյան", "address": "", "community": "Ավան", "latitude": 40.21332512865189, "longitude": 44.584353247904126, "stopType": "BUS", "lot": 6}, {"id": 123, "gisId": 123, "name": "Օրբելի եղբայրների", "nameEn": "", "street": "Օրբելի եղբայրների", "address": "", "community": "Արաբկիր", "latitude": 40.19301402477754, "longitude": 44.492019955056975, "stopType": "BUS", "lot": 6}, {"id": 124, "gisId": 124, "name": "Հ. Քոչարի", "nameEn": "", "street": "Հ. Քոչարի", "address": "", "community": "Արաբկիր", "latitude": 40.19928222929155, "longitude": 44.4970323642523, "stopType": "BUS", "lot": 6}, {"id": 125, "gisId": 125, "name": "Կոմիտասի", "nameEn": "", "street": "Կոմիտասի", "address": "", "community": "Արաբկիր", "latitude": 40.206348047024804, "longitude": 44.51888793862761, "stopType": "BUS", "lot": 6}, {"id": 126, "gisId": 126, "name": "Կոմիտասի", "nameEn": "", "street": "Կոմիտասի", "address": "", "community": "Արաբկիր", "latitude": 40.206340999937254, "longitude": 44.518840000265854, "stopType": "BUS", "lot": 6}, {"id": 127, "gisId": 127, "name": "Արցախի", "nameEn": "", "street": "Արցախի", "address": "", "community": "Էրեբունի", "latitude": 40.141161934975386, "longitude": 44.5109951870783, "stopType": "BUS", "lot": 6}, {"id": 128, "gisId": 128, "name": "Մոսկովյան", "nameEn": "", "street": "Մոսկովյան", "address": "", "community": "Կենտրոն", "latitude": 40.18765852422159, "longitude": 44.51084099111894, "stopType": "BUS", "lot": 6}, {"id": 129, "gisId": 129, "name": "Ե. Չարենց", "nameEn": "", "street": "Ե. Չարենց", "address": "4", "community": "Կենտրոն", "latitude": 40.183978377899905, "longitude": 44.52706585440572, "stopType": "BUS", "lot": 6}, {"id": 130, "gisId": 130, "name": "Արշակունյաց", "nameEn": "", "street": "Արշակունյաց", "address": "6", "community": "Կենտրոն", "latitude": 40.16997389038281, "longitude": 44.507675453959116, "stopType": "BUS", "lot": 6}, {"id": 131, "gisId": 131, "name": "Մոսկովյան", "nameEn": "", "street": "Մոսկովյան", "address": "", "community": "Կենտրոն", "latitude": 40.18424752700195, "longitude": 44.52302328129953, "stopType": "BUS", "lot": 6}, {"id": 132, "gisId": 132, "name": "Րաֆֆու", "nameEn": "", "street": "Րաֆֆու", "address": "", "community": "Մալաթիա-Սեբաստիա", "latitude": 40.17441049694696, "longitude": 44.44995710713485, "stopType": "BUS", "lot": 6}, {"id": 133, "gisId": 133, "name": "Անդրանիկ Զորավարի", "nameEn": "", "street": "Անդրանիկ Զորավարի", "address": "", "community": "Մալաթիա-Սեբաստիա", "latitude": 40.18402205257573, "longitude": 44.44856407976853, "stopType": "BUS", "lot": 6}, {"id": 134, "gisId": 134, "name": "Ծովակալ Իսակովի", "nameEn": "", "street": "Ծովակալ Իսակովի", "address": "", "community": "Մալաթիա-Սեբաստիա", "latitude": 40.157371425251114, "longitude": 44.45109130242173, "stopType": "BUS", "lot": 6}, {"id": 135, "gisId": 135, "name": "Անդրանիկ Զորավարի", "nameEn": "", "street": "Անդրանիկ Զորավարի", "address": "", "community": "Մալաթիա-Սեբաստիա", "latitude": 40.18366298835629, "longitude": 44.4486828145603, "stopType": "BUS", "lot": 6}, {"id": 136, "gisId": 136, "name": "Հ. Գյուրջյան", "nameEn": "", "street": "Հ. Գյուրջյան", "address": "", "community": "Նոր Նորք", "latitude": 40.18798806189961, "longitude": 44.55664100597772, "stopType": "BUS", "lot": 6}, {"id": 137, "gisId": 137, "name": "Ա. Բակունցի", "nameEn": "", "street": "Ա. Բակունցի", "address": "", "community": "Նոր Նորք", "latitude": 40.191761303341536, "longitude": 44.57222095643204, "stopType": "BUS", "lot": 6}, {"id": 138, "gisId": 138, "name": "Գայի", "nameEn": "", "street": "Գայի", "address": "Հայկի արձան", "community": "Նոր Նորք", "latitude": 40.203377380361914, "longitude": 44.56498293381537, "stopType": "BUS", "lot": 6}, {"id": 139, "gisId": 139, "name": "Շարուրի", "nameEn": "", "street": "Շարուրի", "address": "", "community": "Շենգավիթ", "latitude": 40.14021199638662, "longitude": 44.46148645533574, "stopType": "BUS", "lot": 6}, {"id": 140, "gisId": 140, "name": "Ծովակալ Իսակովի", "nameEn": "", "street": "Ծովակալ Իսակովի", "address": "", "community": "Շենգավիթ", "latitude": 40.159229840984494, "longitude": 44.44412540476372, "stopType": "BUS", "lot": 6}, {"id": 141, "gisId": 141, "name": "Թբիլիսյան", "nameEn": "", "street": "Թբիլիսյան", "address": "", "community": "Քանաքեռ-Զեյթուն", "latitude": 40.226132823571014, "longitude": 44.534102388414595, "stopType": "BUS", "lot": 6}, {"id": 142, "gisId": 142, "name": "Ռուբինյանց", "nameEn": "", "street": "Ռուբինյանց", "address": "", "community": "Քանաքեռ-Զեյթուն", "latitude": 40.20224074791222, "longitude": 44.54596379958976, "stopType": "BUS", "lot": 6}, {"id": 143, "gisId": 143, "name": "Է. Հասրաթյան", "nameEn": "", "street": "Է. Հասրաթյան", "address": "", "community": "Քանաքեռ-Զեյթուն", "latitude": 40.209470760267415, "longitude": 44.54118838963255, "stopType": "BUS", "lot": 6}, {"id": 144, "gisId": 144, "name": "Է. Հասրաթյան", "nameEn": "", "street": "Է. Հասրաթյան", "address": "", "community": "Քանաքեռ-Զեյթուն", "latitude": 40.20957624534747, "longitude": 44.54086952960519, "stopType": "BUS", "lot": 6}, {"id": 145, "gisId": 145, "name": "Ն. Սաֆարյան", "nameEn": "", "street": "Ն. Սաֆարյան", "address": "", "community": "Ավան", "latitude": 40.2115656392429, "longitude": 44.581459469678904, "stopType": "BUS", "lot": 7}, {"id": 146, "gisId": 146, "name": "Ն. Սաֆարյան", "nameEn": "", "street": "Ն. Սաֆարյան", "address": "", "community": "Ավան", "latitude": 40.211535255647625, "longitude": 44.58156198160022, "stopType": "BUS", "lot": 7}, {"id": 147, "gisId": 147, "name": "Հ. Քոչարի", "nameEn": "", "street": "Հ. Քոչարի", "address": "", "community": "Արաբկիր", "latitude": 40.20261988320118, "longitude": 44.504439571828804, "stopType": "BUS", "lot": 7}, {"id": 148, "gisId": 148, "name": "Հ. Քոչարի", "nameEn": "", "street": "Հ. Քոչարի", "address": "", "community": "Արաբկիր", "latitude": 40.200584289333676, "longitude": 44.499574506658284, "stopType": "BUS", "lot": 7}, {"id": 149, "gisId": 149, "name": "Հ. Քոչարի", "nameEn": "", "street": "Հ. Քոչարի", "address": "", "community": "Արաբկիր", "latitude": 40.20077879920226, "longitude": 44.50069011385777, "stopType": "BUS", "lot": 7}, {"id": 150, "gisId": 150, "name": "Հ. Քոչարի", "nameEn": "", "street": "Հ. Քոչարի", "address": "", "community": "Արաբկիր", "latitude": 40.20237406970766, "longitude": 44.50451024864915, "stopType": "BUS", "lot": 7}, {"id": 151, "gisId": 151, "name": "Խաղաղ Դոնի", "nameEn": "", "street": "Խաղաղ Դոնի", "address": "", "community": "Էրեբունի", "latitude": 40.12871009819252, "longitude": 44.52966022404022, "stopType": "BUS", "lot": 7}, {"id": 152, "gisId": 152, "name": "Դավիթ Բեկի", "nameEn": "", "street": "Դավիթ Բեկի", "address": "", "community": "Էրեբունի", "latitude": 40.16259023155407, "longitude": 44.533979503251565, "stopType": "BUS", "lot": 7}, {"id": 153, "gisId": 153, "name": "Ա. Մյասնիկյան", "nameEn": "", "street": "Ա. Մյասնիկյան", "address": "", "community": "Կենտրոն", "latitude": 40.19558403897233, "longitude": 44.54700414342657, "stopType": "BUS", "lot": 7}, {"id": 154, "gisId": 154, "name": "Հ. Պարոնյան", "nameEn": "", "street": "Հ. Պարոնյան", "address": "", "community": "Կենտրոն", "latitude": 40.18676118967721, "longitude": 44.50487741755883, "stopType": "BUS", "lot": 7}, {"id": 155, "gisId": 155, "name": "Սեբաստիայի", "nameEn": "", "street": "Սեբաստիայի", "address": "", "community": "Մալաթիա-Սեբաստիա", "latitude": 40.17873205683899, "longitude": 44.45900986001711, "stopType": "BUS", "lot": 7}, {"id": 156, "gisId": 156, "name": "Րաֆֆու", "nameEn": "", "street": "Րաֆֆու", "address": "", "community": "Մալաթիա-Սեբաստիա", "latitude": 40.17482359603225, "longitude": 44.45242603663239, "stopType": "BUS", "lot": 7}, {"id": 157, "gisId": 157, "name": "Սեբաստիայի", "nameEn": "", "street": "Սեբաստիայի", "address": "", "community": "Մալաթիա-Սեբաստիա", "latitude": 40.16429206812449, "longitude": 44.46342437473515, "stopType": "BUS", "lot": 7}, {"id": 158, "gisId": 158, "name": "Սեբաստիայի", "nameEn": "", "street": "Սեբաստիայի", "address": "", "community": "Մալաթիա-Սեբաստիա", "latitude": 40.16443106194408, "longitude": 44.46375213535285, "stopType": "BUS", "lot": 7}, {"id": 159, "gisId": 159, "name": "Գայի", "nameEn": "", "street": "Գայի", "address": "", "community": "Նոր Նորք", "latitude": 40.20212577678329, "longitude": 44.56526861605385, "stopType": "BUS", "lot": 7}, {"id": 160, "gisId": 160, "name": "Հ. Գյուլիքևխյան", "nameEn": "", "street": "Հ. Գյուլիքևխյան", "address": "", "community": "Նոր Նորք", "latitude": 40.18833404907718, "longitude": 44.57012138479412, "stopType": "BUS", "lot": 7}, {"id": 161, "gisId": 161, "name": "Հ. Գյուլիքևխյան", "nameEn": "", "street": "Հ. Գյուլիքևխյան", "address": "", "community": "Նոր Նորք", "latitude": 40.18687924727948, "longitude": 44.571689719704885, "stopType": "BUS", "lot": 7}, {"id": 162, "gisId": 162, "name": "Շիրակի", "nameEn": "", "street": "Շիրակի", "address": "", "community": "Շենգավիթ", "latitude": 40.149272127306894, "longitude": 44.45239633832038, "stopType": "BUS", "lot": 7}, {"id": 163, "gisId": 163, "name": "Շիրակի", "nameEn": "", "street": "Շիրակի", "address": "", "community": "Շենգավիթ", "latitude": 40.14912356020426, "longitude": 44.45234336105732, "stopType": "BUS", "lot": 7}, {"id": 164, "gisId": 164, "name": "Նորագավիթ 1-ին", "nameEn": "", "street": "Նորագավիթ 1-ին", "address": "", "community": "Շենգավիթ", "latitude": 40.10732530811654, "longitude": 44.47114208224136, "stopType": "BUS", "lot": 7}, {"id": 165, "gisId": 165, "name": "Ն. Շենգավիթ 11-րդ", "nameEn": "", "street": "Ն. Շենգավիթ 11-րդ", "address": "", "community": "Շենգավիթ", "latitude": 40.13900893641335, "longitude": 44.48312722034503, "stopType": "BUS", "lot": 7}, {"id": 166, "gisId": 166, "name": "Ա. Ահարոնյան", "nameEn": "", "street": "Ա. Ահարոնյան", "address": "", "community": "Քանաքեռ-Զեյթուն", "latitude": 40.20345244677307, "longitude": 44.53666227894111, "stopType": "BUS", "lot": 7}, {"id": 167, "gisId": 167, "name": "Հ. Ներսիսյան", "nameEn": "", "street": "Հ. Ներսիսյան", "address": "", "community": "Քանաքեռ-Զեյթուն", "latitude": 40.20711101476153, "longitude": 44.52808499582594, "stopType": "BUS", "lot": 7}, {"id": 168, "gisId": 168, "name": "Հ. Ներսիսյան", "nameEn": "", "street": "Հ. Ներսիսյան", "address": "", "community": "Քանաքեռ-Զեյթուն", "latitude": 40.20707959065069, "longitude": 44.528424311832616, "stopType": "BUS", "lot": 7}, {"id": 169, "gisId": 169, "name": "Գ. Ղափանցյան", "nameEn": "", "street": "Գ. Ղափանցյան", "address": "", "community": "Արաբկիր", "latitude": 40.215112319877804, "longitude": 44.52082712966834, "stopType": "BUS", "lot": 8}, {"id": 170, "gisId": 170, "name": "Ա. Շիրվանզադեի", "nameEn": "", "street": "Ա. Շիրվանզադեի", "address": "", "community": "Արաբկիր", "latitude": 40.209212921938864, "longitude": 44.52541248589759, "stopType": "BUS", "lot": 8}, {"id": 171, "gisId": 171, "name": "Մամիկոնյանց", "nameEn": "", "street": "Մամիկոնյանց", "address": "", "community": "Արաբկիր", "latitude": 40.20898614169719, "longitude": 44.52491424259824, "stopType": "BUS", "lot": 8}, {"id": 172, "gisId": 172, "name": "Ա. Շիրվանզադեի", "nameEn": "", "street": "Ա. Շիրվանզադեի", "address": "", "community": "Արաբկիր", "latitude": 40.20853878923377, "longitude": 44.525120651397, "stopType": "BUS", "lot": 8}, {"id": 173, "gisId": 173, "name": "Գ. Աղաբաբյան", "nameEn": "", "street": "Գ. Աղաբաբյան", "address": "11/1", "community": "Դավթաշեն", "latitude": 40.22202893019102, "longitude": 44.485593120925856, "stopType": "BUS", "lot": 8}, {"id": 174, "gisId": 174, "name": "Հ. Այվազովսկու", "nameEn": "", "street": "Հ. Այվազովսկու", "address": "", "community": "Էրեբունի", "latitude": 40.13433095091275, "longitude": 44.52727628767063, "stopType": "BUS", "lot": 8}, {"id": 175, "gisId": 175, "name": "Ժակ-Իվ Կուստոյի", "nameEn": "", "street": "Ժակ-Իվ Կուստոյի", "address": "", "community": "Էրեբունի", "latitude": 40.15250699680064, "longitude": 44.52561017037313, "stopType": "BUS", "lot": 8}, {"id": 176, "gisId": 176, "name": "Արշակունյաց", "nameEn": "", "street": "Արշակունյաց", "address": "", "community": "Կենտրոն", "latitude": 40.16700399533817, "longitude": 44.50621111485114, "stopType": "BUS", "lot": 8}, {"id": 177, "gisId": 177, "name": "Արշակունյաց", "nameEn": "", "street": "Արշակունյաց", "address": "", "community": "Կենտրոն", "latitude": 40.167024999903916, "longitude": 44.50617800001479, "stopType": "BUS", "lot": 8}, {"id": 178, "gisId": 178, "name": "Ե. Քոչարի", "nameEn": "", "street": "Ե. Քոչարի", "address": "", "community": "Կենտրոն", "latitude": 40.172880432685865, "longitude": 44.51973604518243, "stopType": "BUS", "lot": 8}, {"id": 179, "gisId": 179, "name": "Սեբաստիայի", "nameEn": "", "street": "Սեբաստիայի", "address": "", "community": "Մալաթիա-Սեբաստիա", "latitude": 40.165258986812894, "longitude": 44.4602036120072, "stopType": "BUS", "lot": 8}, {"id": 180, "gisId": 180, "name": "Սեբաստիայի", "nameEn": "", "street": "Սեբաստիայի", "address": "", "community": "Մալաթիա-Սեբաստիա", "latitude": 40.17554510861991, "longitude": 44.45799110260737, "stopType": "BUS", "lot": 8}, {"id": 181, "gisId": 181, "name": "Րաֆֆու", "nameEn": "", "street": "Րաֆֆու", "address": "", "community": "Մալաթիա-Սեբաստիա", "latitude": 40.173756866985876, "longitude": 44.44395350205256, "stopType": "BUS", "lot": 8}, {"id": 182, "gisId": 182, "name": "Մոլդովական", "nameEn": "", "street": "Մոլդովական", "address": "29/6", "community": "Նոր Նորք", "latitude": 40.206385440835504, "longitude": 44.57120386276815, "stopType": "BUS", "lot": 8}, {"id": 183, "gisId": 183, "name": "Մոլդովական", "nameEn": "", "street": "Մոլդովական", "address": "133 դպրոցի դիմացի մայթ", "community": "Նոր Նորք", "latitude": 40.20608551873181, "longitude": 44.571422583285646, "stopType": "BUS", "lot": 8}, {"id": 184, "gisId": 184, "name": "Վիլնյուսի", "nameEn": "", "street": "Վիլնյուսի", "address": "", "community": "Նոր Նորք", "latitude": 40.17326197635922, "longitude": 44.56312173108311, "stopType": "BUS", "lot": 8}, {"id": 185, "gisId": 185, "name": "Վիլնյուսի", "nameEn": "", "street": "Վիլնյուսի", "address": "", "community": "Նոր Նորք", "latitude": 40.17337269729221, "longitude": 44.563304611818424, "stopType": "BUS", "lot": 8}, {"id": 186, "gisId": 186, "name": "Նորքի 1-ին", "nameEn": "", "street": "Նորքի 1-ին", "address": "Հին և Նոր Նորքերի անցում", "community": "Նորք-Մարաշ", "latitude": 40.19148302971815, "longitude": 44.547814736560916, "stopType": "BUS", "lot": 8}, {"id": 187, "gisId": 187, "name": "Արշակունյաց", "nameEn": "", "street": "Արշակունյաց", "address": "", "community": "Շենգավիթ", "latitude": 40.136955177139825, "longitude": 44.490146901058694, "stopType": "BUS", "lot": 8}, {"id": 188, "gisId": 188, "name": "Շիրակի փողոցի 5-րդ", "nameEn": "", "street": "Շիրակի փողոցի 5-րդ", "address": "5", "community": "Շենգավիթ", "latitude": 40.14155128296541, "longitude": 44.435189489103756, "stopType": "BUS", "lot": 8}, {"id": 189, "gisId": 189, "name": "Թբիլիսյան", "nameEn": "", "street": "Թբիլիսյան", "address": "", "community": "Քանաքեռ-Զեյթուն", "latitude": 40.22442827824253, "longitude": 44.53180305666584, "stopType": "BUS", "lot": 8}, {"id": 190, "gisId": 190, "name": "Պ. Սևակի", "nameEn": "", "street": "Պ. Սևակի", "address": "", "community": "Քանաքեռ-Զեյթուն", "latitude": 40.20577863497608, "longitude": 44.53876558006754, "stopType": "BUS", "lot": 8}, {"id": 191, "gisId": 191, "name": "Պ. Սևակի", "nameEn": "", "street": "Պ. Սևակի", "address": "", "community": "Քանաքեռ-Զեյթուն", "latitude": 40.20555348790329, "longitude": 44.53876048001219, "stopType": "BUS", "lot": 8}, {"id": 192, "gisId": 192, "name": "Դավիթ Անհաղթի", "nameEn": "", "street": "Դավիթ Անհաղթի", "address": "", "community": "Քանաքեռ-Զեյթուն", "latitude": 40.20330319528629, "longitude": 44.529797944419705, "stopType": "BUS", "lot": 8}, {"id": 193, "gisId": 193, "name": "Տաշքենդի", "nameEn": "", "street": "Տաշքենդի", "address": "", "community": "Ավան", "latitude": 40.22294034811867, "longitude": 44.57323268564004, "stopType": "BUS", "lot": 9}, {"id": 194, "gisId": 194, "name": "Թբիլիսյան", "nameEn": "", "street": "Թբիլիսյան", "address": "", "community": "Արաբկիր", "latitude": 40.21888201978941, "longitude": 44.53127986977025, "stopType": "BUS", "lot": 9}, {"id": 195, "gisId": 195, "name": "Թբիլիսյան", "nameEn": "", "street": "Թբիլիսյան", "address": "", "community": "Արաբկիր", "latitude": 40.214008314831915, "longitude": 44.53121856298636, "stopType": "BUS", "lot": 9}, {"id": 196, "gisId": 196, "name": "Ն. Տիգրանյան", "nameEn": "", "street": "Ն. Տիգրանյան", "address": "", "community": "Արաբկիր", "latitude": 40.212383158955696, "longitude": 44.52089998914324, "stopType": "BUS", "lot": 9}, {"id": 197, "gisId": 197, "name": "Հ. Այվազովսկու", "nameEn": "", "street": "Հ. Այվազովսկու", "address": "", "community": "Էրեբունի", "latitude": 40.13702984694992, "longitude": 44.53209051776327, "stopType": "BUS", "lot": 9}, {"id": 198, "gisId": 198, "name": "Էրեբունու", "nameEn": "", "street": "Էրեբունու", "address": "", "community": "Էրեբունի", "latitude": 40.14142917391727, "longitude": 44.52859193556939, "stopType": "BUS", "lot": 9}, {"id": 199, "gisId": 199, "name": "Էրեբունու", "nameEn": "", "street": "Էրեբունու", "address": "", "community": "Էրեբունի", "latitude": 40.141656269821084, "longitude": 44.528924569613295, "stopType": "BUS", "lot": 9}, {"id": 200, "gisId": 200, "name": "Դավիթ Բեկի", "nameEn": "", "street": "Դավիթ Բեկի", "address": "", "community": "Էրեբունի", "latitude": 40.16229243364891, "longitude": 44.533014330147324, "stopType": "BUS", "lot": 9}, {"id": 201, "gisId": 201, "name": "Ալ. Մանուկյան", "nameEn": "", "street": "Ալ. Մանուկյան", "address": "", "community": "Կենտրոն", "latitude": 40.17478947395517, "longitude": 44.52243859516516, "stopType": "BUS", "lot": 9}, {"id": 202, "gisId": 202, "name": "Տիգրան Մեծի", "nameEn": "", "street": "Տիգրան Մեծի", "address": "", "community": "Կենտրոն", "latitude": 40.17508921619439, "longitude": 44.51400026540006, "stopType": "BUS", "lot": 9}, {"id": 203, "gisId": 203, "name": "Պ. Տիչինայի", "nameEn": "", "street": "Պ. Տիչինայի", "address": "", "community": "Մալաթիա-Սեբաստիա", "latitude": 40.18345593744175, "longitude": 44.45980255034748, "stopType": "BUS", "lot": 9}, {"id": 204, "gisId": 204, "name": "Ա. Միկոյան", "nameEn": "", "street": "Ա. Միկոյան", "address": "", "community": "Նոր Նորք", "latitude": 40.18215090963684, "longitude": 44.57027840012813, "stopType": "BUS", "lot": 9}, {"id": 205, "gisId": 205, "name": "Ա. Միկոյան", "nameEn": "", "street": "Ա. Միկոյան", "address": "", "community": "Նոր Նորք", "latitude": 40.18225564738032, "longitude": 44.57066736500696, "stopType": "BUS", "lot": 9}, {"id": 206, "gisId": 206, "name": "Գայի", "nameEn": "", "street": "Գայի", "address": "", "community": "Նոր Նորք", "latitude": 40.19412858696485, "longitude": 44.56949727507928, "stopType": "BUS", "lot": 9}, {"id": 207, "gisId": 207, "name": "Գայի", "nameEn": "", "street": "Գայի", "address": "", "community": "Նոր Նորք", "latitude": 40.194022832088116, "longitude": 44.569092033370694, "stopType": "BUS", "lot": 9}, {"id": 208, "gisId": 208, "name": "Ծիծեռնակաբերդի", "nameEn": "", "street": "Ծիծեռնակաբերդի", "address": "", "community": "Նոր Նորք", "latitude": 40.180088999807595, "longitude": 44.4891489998265, "stopType": "BUS", "lot": 9}, {"id": 209, "gisId": 209, "name": "Ա. Արմենակյան", "nameEn": "", "street": "Ա. Արմենակյան", "address": "", "community": "Նորք-Մարաշ", "latitude": 40.18914777544952, "longitude": 44.53089429083889, "stopType": "BUS", "lot": 9}, {"id": 210, "gisId": 210, "name": "Ա. Արմենակյան", "nameEn": "", "street": "Ա. Արմենակյան", "address": "", "community": "Նորք-Մարաշ", "latitude": 40.18623171741997, "longitude": 44.53707089940255, "stopType": "BUS", "lot": 9}, {"id": 211, "gisId": 211, "name": "Գ. Հովսեփյան", "nameEn": "", "street": "Գ. Հովսեփյան", "address": "", "community": "Նորք-Մարաշ", "latitude": 40.1885268088652, "longitude": 44.54454615777899, "stopType": "BUS", "lot": 9}, {"id": 212, "gisId": 212, "name": "Արտաշիսյան", "nameEn": "", "street": "Արտաշիսյան", "address": "", "community": "Շենգավիթ", "latitude": 40.14815556862471, "longitude": 44.468897690076396, "stopType": "BUS", "lot": 9}, {"id": 213, "gisId": 213, "name": "Արտաշատի", "nameEn": "", "street": "Արտաշատի", "address": "100", "community": "Շենգավիթ", "latitude": 40.110365310710606, "longitude": 44.47289710471767, "stopType": "BUS", "lot": 9}, {"id": 214, "gisId": 214, "name": "Բագրատունյաց", "nameEn": "", "street": "Բագրատունյաց", "address": "", "community": "Շենգավիթ", "latitude": 40.1475951300113, "longitude": 44.48775443102224, "stopType": "BUS", "lot": 9}, {"id": 215, "gisId": 215, "name": "Բագրատունյաց", "nameEn": "", "street": "Բագրատունյաց", "address": "", "community": "Շենգավիթ", "latitude": 40.147499822558835, "longitude": 44.48832395458687, "stopType": "BUS", "lot": 9}, {"id": 216, "gisId": 216, "name": "Ազատության", "nameEn": "", "street": "Ազատության", "address": "", "community": "Քանաքեռ-Զեյթուն", "latitude": 40.19951485962313, "longitude": 44.52035344325688, "stopType": "BUS", "lot": 9}, {"id": 217, "gisId": 217, "name": "Ծարավ Աղբյուրի", "nameEn": "", "street": "Ծարավ Աղբյուրի", "address": "", "community": "Ավան", "latitude": 40.21648537060347, "longitude": 44.55195788984483, "stopType": "BUS", "lot": 10}, {"id": 218, "gisId": 218, "name": "Հ. Քոչարի", "nameEn": "", "street": "Հ. Քոչարի", "address": "", "community": "Արաբկիր", "latitude": 40.19836626798898, "longitude": 44.49404080993546, "stopType": "BUS", "lot": 10}, {"id": 219, "gisId": 219, "name": "Կոմիտասի", "nameEn": "", "street": "Կոմիտասի", "address": "", "community": "Արաբկիր", "latitude": 40.20155412002669, "longitude": 44.49605037832236, "stopType": "BUS", "lot": 10}, {"id": 220, "gisId": 220, "name": "Կոմիտասի", "nameEn": "", "street": "Կոմիտասի", "address": "", "community": "Արաբկիր", "latitude": 40.201834207582735, "longitude": 44.49603518877302, "stopType": "BUS", "lot": 10}, {"id": 221, "gisId": 221, "name": "Կոմիտասի", "nameEn": "", "street": "Կոմիտասի", "address": "", "community": "Արաբկիր", "latitude": 40.20273967199832, "longitude": 44.49817228732125, "stopType": "BUS", "lot": 10}, {"id": 222, "gisId": 222, "name": "Էրեբունու", "nameEn": "", "street": "Էրեբունու", "address": "", "community": "Էրեբունի", "latitude": 40.142003266937245, "longitude": 44.523628992683946, "stopType": "BUS", "lot": 10}, {"id": 223, "gisId": 223, "name": "Էրեբունու", "nameEn": "", "street": "Էրեբունու", "address": "", "community": "Էրեբունի", "latitude": 40.14117906975833, "longitude": 44.53302378741791, "stopType": "BUS", "lot": 10}, {"id": 224, "gisId": 224, "name": "Ծիծեռնակաբերդի", "nameEn": "", "street": "Ծիծեռնակաբերդի", "address": "", "community": "Կենտրոն", "latitude": 40.180101622691794, "longitude": 44.48909022913081, "stopType": "BUS", "lot": 10}, {"id": 225, "gisId": 225, "name": "Ծիծեռնակաբերդի", "nameEn": "", "street": "Ծիծեռնակաբերդի", "address": "", "community": "Կենտրոն", "latitude": 40.180088999807595, "longitude": 44.4891489998265, "stopType": "BUS", "lot": 10}, {"id": 226, "gisId": 226, "name": "Ե. Չարենց", "nameEn": "", "street": "Ե. Չարենց", "address": "44", "community": "Կենտրոն", "latitude": 40.17778804388323, "longitude": 44.52738187077675, "stopType": "BUS", "lot": 10}, {"id": 227, "gisId": 227, "name": "Ե. Չարենց", "nameEn": "", "street": "Ե. Չարենց", "address": "47", "community": "Կենտրոն", "latitude": 40.17772631441799, "longitude": 44.52763825040498, "stopType": "BUS", "lot": 10}, {"id": 228, "gisId": 228, "name": "Անդրանիկ Զորավարի", "nameEn": "", "street": "Անդրանիկ Զորավարի", "address": "", "community": "Մալաթիա-Սեբաստիա", "latitude": 40.170943387427435, "longitude": 44.44595133428673, "stopType": "BUS", "lot": 10}, {"id": 229, "gisId": 229, "name": "Անդրանիկ Զորավարի", "nameEn": "", "street": "Անդրանիկ Զորավարի", "address": "", "community": "Մալաթիա-Սեբաստիա", "latitude": 40.170451326067926, "longitude": 44.44615662612748, "stopType": "BUS", "lot": 10}, {"id": 230, "gisId": 230, "name": "Սեբաստիայի", "nameEn": "", "street": "Սեբաստիայի", "address": "", "community": "Մալաթիա-Սեբաստիա", "latitude": 40.18291283685799, "longitude": 44.46064729163926, "stopType": "BUS", "lot": 10}, {"id": 231, "gisId": 231, "name": "Մալաթիայի", "nameEn": "", "street": "Մալաթիայի", "address": "", "community": "Մալաթիա-Սեբաստիա", "latitude": 40.17419369378402, "longitude": 44.45872597642278, "stopType": "BUS", "lot": 10}, {"id": 232, "gisId": 232, "name": "Հ. Գյուրջյան", "nameEn": "", "street": "Հ. Գյուրջյան", "address": "", "community": "Նոր Նորք", "latitude": 40.188500721331266, "longitude": 44.556891974385216, "stopType": "BUS", "lot": 10}, {"id": 233, "gisId": 233, "name": "Գայի", "nameEn": "", "street": "Գայի", "address": "", "community": "Նոր Նորք", "latitude": 40.199980961152555, "longitude": 44.56679613613287, "stopType": "BUS", "lot": 10}, {"id": 234, "gisId": 234, "name": "Արարատյան", "nameEn": "", "street": "Արարատյան", "address": "", "community": "Շենգավիթ", "latitude": 40.134054526295415, "longitude": 44.45920359107295, "stopType": "BUS", "lot": 10}, {"id": 235, "gisId": 235, "name": "Արշակունյաց", "nameEn": "", "street": "Արշակունյաց", "address": "", "community": "Շենգավիթ", "latitude": 40.14742123889911, "longitude": 44.497836496657044, "stopType": "BUS", "lot": 10}, {"id": 236, "gisId": 236, "name": "Բագրատունյաց", "nameEn": "", "street": "Բագրատունյաց", "address": "", "community": "Շենգավիթ", "latitude": 40.15154615393192, "longitude": 44.483702603892105, "stopType": "BUS", "lot": 10}, {"id": 237, "gisId": 237, "name": "Յան Ռայնիսի", "nameEn": "", "street": "Յան Ռայնիսի", "address": "", "community": "Քանաքեռ-Զեյթուն", "latitude": 40.2011541843182, "longitude": 44.54683921855519, "stopType": "BUS", "lot": 10}, {"id": 238, "gisId": 238, "name": "Դավիթ Անհաղթի", "nameEn": "", "street": "Դավիթ Անհաղթի", "address": "", "community": "Քանաքեռ-Զեյթուն", "latitude": 40.20161544119975, "longitude": 44.532831212890265, "stopType": "BUS", "lot": 10}, {"id": 239, "gisId": 239, "name": "Դավիթ Անհաղթի", "nameEn": "", "street": "Դավիթ Անհաղթի", "address": "", "community": "Քանաքեռ-Զեյթուն", "latitude": 40.20184458036317, "longitude": 44.533045801922384, "stopType": "BUS", "lot": 10}, {"id": 240, "gisId": 240, "name": "Զ. Քանաքեռցու", "nameEn": "", "street": "Զ. Քանաքեռցու", "address": "", "community": "Քանաքեռ-Զեյթուն", "latitude": 40.219684420100016, "longitude": 44.54073374906337, "stopType": "BUS", "lot": 10}, {"id": 241, "gisId": 241, "name": "Հ. Աճառյան", "nameEn": "", "street": "Հ. Աճառյան", "address": "", "community": "Ավան", "latitude": 40.209288348078864, "longitude": 44.56050265257539, "stopType": "BUS", "lot": 11}, {"id": 242, "gisId": 242, "name": "Հ. Աճառյան", "nameEn": "", "street": "Հ. Աճառյան", "address": "", "community": "Ավան", "latitude": 40.20926772392639, "longitude": 44.560902787034046, "stopType": "BUS", "lot": 11}, {"id": 243, "gisId": 243, "name": "Հ. Աճառյան", "nameEn": "", "street": "Հ. Աճառյան", "address": "", "community": "Ավան", "latitude": 40.218600350326, "longitude": 44.56158561708268, "stopType": "BUS", "lot": 11}, {"id": 244, "gisId": 244, "name": "Կոմիտասի", "nameEn": "", "street": "Կոմիտասի", "address": "", "community": "Արաբկիր", "latitude": 40.204382808919576, "longitude": 44.50299214627056, "stopType": "BUS", "lot": 11}, {"id": 245, "gisId": 245, "name": "Մարշալ Բաղրամյան", "nameEn": "", "street": "Մարշալ Բաղրամյան", "address": "", "community": "Արաբկիր", "latitude": 40.19631108328997, "longitude": 44.49409320623658, "stopType": "BUS", "lot": 11}, {"id": 246, "gisId": 246, "name": "Ազատության", "nameEn": "", "street": "Ազատության", "address": "", "community": "Արաբկիր", "latitude": 40.19621289081234, "longitude": 44.51666071541974, "stopType": "BUS", "lot": 11}, {"id": 247, "gisId": 247, "name": "Տ. Պետրոսյան", "nameEn": "", "street": "Տ. Պետրոսյան", "address": "", "community": "Դավթաշեն", "latitude": 40.22486921674098, "longitude": 44.49816980339378, "stopType": "BUS", "lot": 11}, {"id": 248, "gisId": 248, "name": "Սասունցի Դավիթ", "nameEn": "", "street": "Սասունցի Դավիթ", "address": "", "community": "Էրեբունի", "latitude": 40.154994006268495, "longitude": 44.510963803436816, "stopType": "BUS", "lot": 11}, {"id": 249, "gisId": 249, "name": "Մ. Խորենացու", "nameEn": "", "street": "Մ. Խորենացու", "address": "", "community": "Էրեբունի", "latitude": 40.156965782444935, "longitude": 44.518968703143166, "stopType": "BUS", "lot": 11}, {"id": 250, "gisId": 250, "name": "Էրեբունու", "nameEn": "", "street": "Էրեբունու", "address": "", "community": "Էրեբունի", "latitude": 40.141820524697515, "longitude": 44.52630103406555, "stopType": "BUS", "lot": 11}, {"id": 251, "gisId": 251, "name": "Ե. Չարենց", "nameEn": "", "street": "Ե. Չարենց", "address": "21", "community": "Կենտրոն", "latitude": 40.18131101659018, "longitude": 44.52789194915421, "stopType": "BUS", "lot": 11}, {"id": 252, "gisId": 252, "name": "Ծովակալ Իսակովի", "nameEn": "", "street": "Ծովակալ Իսակովի", "address": "", "community": "Կենտրոն", "latitude": 40.173742425672565, "longitude": 44.49463765400462, "stopType": "BUS", "lot": 11}, {"id": 253, "gisId": 253, "name": "Ծովակալ Իսակովի", "nameEn": "", "street": "Ծովակալ Իսակովի", "address": "", "community": "Մալաթիա-Սեբաստիա", "latitude": 40.158509145880494, "longitude": 44.464916043340786, "stopType": "BUS", "lot": 11}, {"id": 254, "gisId": 254, "name": "Հաղթանակի 6-րդ", "nameEn": "", "street": "Հաղթանակի 6-րդ", "address": "", "community": "Մալաթիա-Սեբաստիա", "latitude": 40.18682777728019, "longitude": 44.42530153493794, "stopType": "BUS", "lot": 11}, {"id": 255, "gisId": 255, "name": "Ա. Բակունցի", "nameEn": "", "street": "Ա. Բակունցի", "address": "", "community": "Նոր Նորք", "latitude": 40.1891927199681, "longitude": 44.569991240303516, "stopType": "BUS", "lot": 11}, {"id": 256, "gisId": 256, "name": "Դավիթ Բեկի", "nameEn": "", "street": "Դավիթ Բեկի", "address": "", "community": "Նոր Նորք", "latitude": 40.183353846403016, "longitude": 44.56242877916487, "stopType": "BUS", "lot": 11}, {"id": 257, "gisId": 257, "name": "Բ. Մուրադյան", "nameEn": "", "street": "Բ. Մուրադյան", "address": "", "community": "Նոր Նորք", "latitude": 40.18683385040194, "longitude": 44.564240520983326, "stopType": "BUS", "lot": 11}, {"id": 258, "gisId": 258, "name": "Գ. Հովսեփյան", "nameEn": "", "street": "Գ. Հովսեփյան", "address": "", "community": "Նորք-Մարաշ", "latitude": 40.18056784383102, "longitude": 44.540405393993844, "stopType": "BUS", "lot": 11}, {"id": 259, "gisId": 259, "name": "Շիրակի", "nameEn": "", "street": "Շիրակի", "address": "", "community": "Շենգավիթ", "latitude": 40.14009769165519, "longitude": 44.46800203186831, "stopType": "BUS", "lot": 11}, {"id": 260, "gisId": 260, "name": "Թամանցիների", "nameEn": "", "street": "Թամանցիների", "address": "", "community": "Շենգավիթ", "latitude": 40.13555660905029, "longitude": 44.500158140585825, "stopType": "BUS", "lot": 11}, {"id": 261, "gisId": 261, "name": "Ազատության", "nameEn": "", "street": "Ազատության", "address": "", "community": "Քանաքեռ-Զեյթուն", "latitude": 40.196001503366716, "longitude": 44.516987811438455, "stopType": "BUS", "lot": 11}, {"id": 262, "gisId": 262, "name": "Ազատության", "nameEn": "", "street": "Ազատության", "address": "", "community": "Քանաքեռ-Զեյթուն", "latitude": 40.19611799974599, "longitude": 44.51710100011109, "stopType": "BUS", "lot": 11}, {"id": 263, "gisId": 263, "name": "Ռուբինյանց", "nameEn": "", "street": "Ռուբինյանց", "address": "", "community": "Քանաքեռ-Զեյթուն", "latitude": 40.20425802798563, "longitude": 44.5505833093723, "stopType": "BUS", "lot": 11}, {"id": 264, "gisId": 264, "name": "Ռուբինյանց", "nameEn": "", "street": "Ռուբինյանց", "address": "", "community": "Քանաքեռ-Զեյթուն", "latitude": 40.20393571815897, "longitude": 44.55025017710404, "stopType": "BUS", "lot": 11}, {"id": 265, "gisId": 265, "name": "Կոմիտասի", "nameEn": "", "street": "Կոմիտասի", "address": "", "community": "Արաբկիր", "latitude": 40.206775450726575, "longitude": 44.510819599844766, "stopType": "BUS", "lot": 12}, {"id": 266, "gisId": 266, "name": "Մամիկոնյանց", "nameEn": "", "street": "Մամիկոնյանց", "address": "", "community": "Արաբկիր", "latitude": 40.209410769191784, "longitude": 44.51448482101776, "stopType": "BUS", "lot": 12}, {"id": 267, "gisId": 267, "name": "Տ. Պետրոսյան", "nameEn": "", "street": "Տ. Պետրոսյան", "address": "", "community": "Դավթաշեն", "latitude": 40.21819841992118, "longitude": 44.4890753408544, "stopType": "BUS", "lot": 12}, {"id": 268, "gisId": 268, "name": "Դավիթ Բեկի", "nameEn": "", "street": "Դավիթ Բեկի", "address": "", "community": "Էրեբունի", "latitude": 40.150936853353194, "longitude": 44.53049072906394, "stopType": "BUS", "lot": 12}, {"id": 269, "gisId": 269, "name": "Գ. Նժդեհի", "nameEn": "", "street": "Գ. Նժդեհի", "address": "", "community": "Էրեբունի", "latitude": 40.15048633437692, "longitude": 44.50969376375622, "stopType": "BUS", "lot": 12}, {"id": 270, "gisId": 270, "name": "Աթենքի", "nameEn": "", "street": "Աթենքի", "address": "", "community": "Կենտրոն", "latitude": 40.17914402817445, "longitude": 44.49313185525099, "stopType": "BUS", "lot": 12}, {"id": 271, "gisId": 271, "name": "Ծովակալ Իսակովի", "nameEn": "", "street": "Ծովակալ Իսակովի", "address": "", "community": "Կենտրոն", "latitude": 40.17159109535282, "longitude": 44.4915931017403, "stopType": "BUS", "lot": 12}, {"id": 272, "gisId": 272, "name": "Ծովակալ Իսակովի", "nameEn": "", "street": "Ծովակալ Իսակովի", "address": "", "community": "Կենտրոն", "latitude": 40.171683999816786, "longitude": 44.491760999770364, "stopType": "BUS", "lot": 12}, {"id": 273, "gisId": 273, "name": "Հաղթանակի 1-ին", "nameEn": "", "street": "Հաղթանակի 1-ին", "address": "", "community": "Մալաթիա-Սեբաստիա", "latitude": 40.18492933721923, "longitude": 44.43024561094626, "stopType": "BUS", "lot": 12}, {"id": 274, "gisId": 274, "name": "Սեբաստիայի", "nameEn": "", "street": "Սեբաստիայի", "address": "", "community": "Մալաթիա-Սեբաստիա", "latitude": 40.17797506779519, "longitude": 44.459000996299025, "stopType": "BUS", "lot": 12}, {"id": 275, "gisId": 275, "name": "Ա. Բաբաջանյան", "nameEn": "", "street": "Ա. Բաբաջանյան", "address": "", "community": "Մալաթիա-Սեբաստիա", "latitude": 40.16311883506632, "longitude": 44.44152076577081, "stopType": "BUS", "lot": 12}, {"id": 276, "gisId": 276, "name": "Գայի", "nameEn": "", "street": "Գայի", "address": "", "community": "Նոր Նորք", "latitude": 40.19794418917301, "longitude": 44.56744005071783, "stopType": "BUS", "lot": 12}, {"id": 277, "gisId": 277, "name": "Գայի", "nameEn": "", "street": "Գայի", "address": "", "community": "Նոր Նորք", "latitude": 40.19801199985396, "longitude": 44.567413000009985, "stopType": "BUS", "lot": 12}, {"id": 278, "gisId": 278, "name": "Ա. Քոչինյան", "nameEn": "", "street": "Ա. Քոչինյան", "address": "", "community": "Նոր Նորք", "latitude": 40.188299170670255, "longitude": 44.596283567832394, "stopType": "BUS", "lot": 12}, {"id": 279, "gisId": 279, "name": "", "nameEn": "", "street": "", "address": "", "community": "Նոր Նորք", "latitude": 40.15945781372719, "longitude": 44.43296674901634, "stopType": "BUS", "lot": 12}, {"id": 280, "gisId": 280, "name": "Ջուղայի", "nameEn": "", "street": "Ջուղայի", "address": "", "community": "Նոր Նորք", "latitude": 40.197098844436255, "longitude": 44.55913855190277, "stopType": "BUS", "lot": 12}, {"id": 281, "gisId": 281, "name": "Ա. Արմենակյան", "nameEn": "", "street": "Ա. Արմենակյան", "address": "", "community": "Նորք-Մարաշ", "latitude": 40.18659300476343, "longitude": 44.53349135484221, "stopType": "BUS", "lot": 12}, {"id": 282, "gisId": 282, "name": "Նուբարաշենի 11-րդ", "nameEn": "", "street": "Նուբարաշենի 11-րդ", "address": "", "community": "Նուբարաշեն", "latitude": 40.08568150160007, "longitude": 44.54814637235722, "stopType": "BUS", "lot": 12}, {"id": 283, "gisId": 283, "name": "Արշակունյաց", "nameEn": "", "street": "Արշակունյաց", "address": "", "community": "Շենգավիթ", "latitude": 40.15871790910427, "longitude": 44.5029339961071, "stopType": "BUS", "lot": 12}, {"id": 284, "gisId": 284, "name": "Արտաշիսյան", "nameEn": "", "street": "Արտաշիսյան", "address": "", "community": "Շենգավիթ", "latitude": 40.145286324804076, "longitude": 44.462827991118935, "stopType": "BUS", "lot": 12}, {"id": 285, "gisId": 285, "name": "Գ. Նժդեհի", "nameEn": "", "street": "Գ. Նժդեհի", "address": "", "community": "Շենգավիթ", "latitude": 40.15212968533685, "longitude": 44.49622711488954, "stopType": "BUS", "lot": 12}, {"id": 286, "gisId": 286, "name": "Գ. Նժդեհի", "nameEn": "", "street": "Գ. Նժդեհի", "address": "", "community": "Շենգավիթ", "latitude": 40.151925773056135, "longitude": 44.49609589121248, "stopType": "BUS", "lot": 12}, {"id": 287, "gisId": 287, "name": "Զ. Քանաքեռցու", "nameEn": "", "street": "Զ. Քանաքեռցու", "address": "", "community": "Քանաքեռ-Զեյթուն", "latitude": 40.22555034257437, "longitude": 44.54747955833503, "stopType": "BUS", "lot": 12}, {"id": 288, "gisId": 288, "name": "Է. Հասրաթյան", "nameEn": "", "street": "Է. Հասրաթյան", "address": "", "community": "Քանաքեռ-Զեյթուն", "latitude": 40.214071987732105, "longitude": 44.536713509720755, "stopType": "BUS", "lot": 12}, {"id": 289, "gisId": 289, "name": "Կիևյան", "nameEn": "", "street": "Կիևյան", "address": "", "community": "Արաբկիր", "latitude": 40.19289747713692, "longitude": 44.48493730111561, "stopType": "BUS", "lot": 13}, {"id": 290, "gisId": 290, "name": "Կիևյան", "nameEn": "", "street": "Կիևյան", "address": "", "community": "Արաբկիր", "latitude": 40.19314076533413, "longitude": 44.48487761940673, "stopType": "BUS", "lot": 13}, {"id": 291, "gisId": 291, "name": "Կոմիտասի", "nameEn": "", "street": "Կոմիտասի", "address": "", "community": "Արաբկիր", "latitude": 40.20709150756708, "longitude": 44.50991061907986, "stopType": "BUS", "lot": 13}, {"id": 292, "gisId": 292, "name": "Կոմիտասի", "nameEn": "", "street": "Կոմիտասի", "address": "", "community": "Արաբկիր", "latitude": 40.206932956191096, "longitude": 44.51345392006245, "stopType": "BUS", "lot": 13}, {"id": 293, "gisId": 293, "name": "Կոմիտասի", "nameEn": "", "street": "Կոմիտասի", "address": "", "community": "Արաբկիր", "latitude": 40.20691799956607, "longitude": 44.513261000195065, "stopType": "BUS", "lot": 13}, {"id": 294, "gisId": 294, "name": "Տ. Պետրոսյան", "nameEn": "", "street": "Տ. Պետրոսյան", "address": "", "community": "Դավթաշեն", "latitude": 40.21974231035935, "longitude": 44.49164243495046, "stopType": "BUS", "lot": 13}, {"id": 295, "gisId": 295, "name": "Էրեբունու", "nameEn": "", "street": "Էրեբունու", "address": "9", "community": "Էրեբունի", "latitude": 40.1423682397026, "longitude": 44.516437269864205, "stopType": "BUS", "lot": 13}, {"id": 296, "gisId": 296, "name": "Էրեբունու", "nameEn": "", "street": "Էրեբունու", "address": "128/2", "community": "Էրեբունի", "latitude": 40.14099062581675, "longitude": 44.53397131222636, "stopType": "BUS", "lot": 13}, {"id": 297, "gisId": 297, "name": "Մ. Հերացու", "nameEn": "", "street": "Մ. Հերացու", "address": "", "community": "Կենտրոն", "latitude": 40.188326015433255, "longitude": 44.52705238436013, "stopType": "BUS", "lot": 13}, {"id": 298, "gisId": 298, "name": "Արշակունյաց", "nameEn": "", "street": "Արշակունյաց", "address": "", "community": "Կենտրոն", "latitude": 40.16353350796507, "longitude": 44.50441008485758, "stopType": "BUS", "lot": 13}, {"id": 299, "gisId": 299, "name": "Արշակունյաց", "nameEn": "", "street": "Արշակունյաց", "address": "", "community": "Կենտրոն", "latitude": 40.16379859033274, "longitude": 44.50415835202639, "stopType": "BUS", "lot": 13}, {"id": 300, "gisId": 300, "name": "Նար Դոսի", "nameEn": "", "street": "Նար Դոսի", "address": "", "community": "Կենտրոն", "latitude": 40.16695612082847, "longitude": 44.52057458564871, "stopType": "BUS", "lot": 13}, {"id": 301, "gisId": 301, "name": "Անդրանիկ Զորավարի", "nameEn": "", "street": "Անդրանիկ Զորավարի", "address": "", "community": "Մալաթիա-Սեբաստիա", "latitude": 40.175782860590616, "longitude": 44.44588855980928, "stopType": "BUS", "lot": 13}, {"id": 302, "gisId": 302, "name": "Ծովակալ Իսակովի", "nameEn": "", "street": "Ծովակալ Իսակովի", "address": "", "community": "Մալաթիա-Սեբաստիա", "latitude": 40.156339007139515, "longitude": 44.45609417700474, "stopType": "BUS", "lot": 13}, {"id": 303, "gisId": 303, "name": "Ծովակալ Իսակովի", "nameEn": "", "street": "Ծովակալ Իսակովի", "address": "", "community": "Մալաթիա-Սեբաստիա", "latitude": 40.156604576040486, "longitude": 44.455979013420794, "stopType": "BUS", "lot": 13}, {"id": 304, "gisId": 304, "name": "Վ. Թոթովենցի", "nameEn": "", "street": "Վ. Թոթովենցի", "address": "", "community": "Նոր Նորք", "latitude": 40.20446009575691, "longitude": 44.56977832041322, "stopType": "BUS", "lot": 13}, {"id": 305, "gisId": 305, "name": "Վիլնյուսի", "nameEn": "", "street": "Վիլնյուսի", "address": "", "community": "Նոր Նորք", "latitude": 40.175626490070506, "longitude": 44.574640200185144, "stopType": "BUS", "lot": 13}, {"id": 306, "gisId": 306, "name": "Ն. Ստեփանյան", "nameEn": "", "street": "Ն. Ստեփանյան", "address": "", "community": "Նոր Նորք", "latitude": 40.19884164692457, "longitude": 44.56887931223057, "stopType": "BUS", "lot": 13}, {"id": 307, "gisId": 307, "name": "Գ. Հովսեփյան", "nameEn": "", "street": "Գ. Հովսեփյան", "address": "", "community": "Նորք-Մարաշ", "latitude": 40.16864870337503, "longitude": 44.53682143556086, "stopType": "BUS", "lot": 13}, {"id": 308, "gisId": 308, "name": "Նուբարաշենի 6-րդ", "nameEn": "", "street": "Նուբարաշենի 6-րդ", "address": "", "community": "Նուբարաշեն", "latitude": 40.093655151664066, "longitude": 44.552546619331075, "stopType": "BUS", "lot": 13}, {"id": 309, "gisId": 309, "name": "Բագրատունյաց", "nameEn": "", "street": "Բագրատունյաց", "address": "", "community": "Շենգավիթ", "latitude": 40.15510193570585, "longitude": 44.478190827244944, "stopType": "BUS", "lot": 13}, {"id": 310, "gisId": 310, "name": "Շիրակի", "nameEn": "", "street": "Շիրակի", "address": "", "community": "Շենգավիթ", "latitude": 40.147730368261925, "longitude": 44.45777867644486, "stopType": "BUS", "lot": 13}, {"id": 311, "gisId": 311, "name": "Արշակունյաց", "nameEn": "", "street": "Արշակունյաց", "address": "", "community": "Շենգավիթ", "latitude": 40.15609014134705, "longitude": 44.50142650482942, "stopType": "BUS", "lot": 13}, {"id": 312, "gisId": 312, "name": "Դրոյի", "nameEn": "", "street": "Դրոյի", "address": "", "community": "Քանաքեռ-Զեյթուն", "latitude": 40.206170019930525, "longitude": 44.54501730090777, "stopType": "BUS", "lot": 13}, {"id": 313, "gisId": 313, "name": "Հ. Աճառյան", "nameEn": "", "street": "Հ. Աճառյան", "address": "", "community": "Ավան", "latitude": 40.22622969584384, "longitude": 44.55846370423662, "stopType": "BUS", "lot": 14}, {"id": 314, "gisId": 314, "name": "Ա. Գրիբոյեդովի", "nameEn": "", "street": "Ա. Գրիբոյեդովի", "address": "", "community": "Արաբկիր", "latitude": 40.20740031767065, "longitude": 44.51394605066977, "stopType": "BUS", "lot": 14}, {"id": 315, "gisId": 315, "name": "Կոմիտասի", "nameEn": "", "street": "Կոմիտասի", "address": "", "community": "Արաբկիր", "latitude": 40.206555275105906, "longitude": 44.515093782552114, "stopType": "BUS", "lot": 14}, {"id": 316, "gisId": 316, "name": "Կոմիտասի", "nameEn": "", "street": "Կոմիտասի", "address": "", "community": "Արաբկիր", "latitude": 40.206541000167086, "longitude": 44.515106999888175, "stopType": "BUS", "lot": 14}, {"id": 317, "gisId": 317, "name": "Գ. Ղափանցյան", "nameEn": "", "street": "Գ. Ղափանցյան", "address": "", "community": "Արաբկիր", "latitude": 40.215212709399026, "longitude": 44.523838570693584, "stopType": "BUS", "lot": 14}, {"id": 318, "gisId": 318, "name": "Կոմիտասի", "nameEn": "", "street": "Կոմիտասի", "address": "", "community": "Արաբկիր", "latitude": 40.20614650535699, "longitude": 44.522724649722875, "stopType": "BUS", "lot": 14}, {"id": 319, "gisId": 319, "name": "Սասնա Ծռերի", "nameEn": "", "street": "Սասնա Ծռերի", "address": "1/3 դիմաց", "community": "Դավթաշեն", "latitude": 40.21437983106442, "longitude": 44.48891900630712, "stopType": "BUS", "lot": 14}, {"id": 320, "gisId": 320, "name": "Սասունցի Դավիթ", "nameEn": "", "street": "Սասունցի Դավիթ", "address": "", "community": "Էրեբունի", "latitude": 40.15452151685457, "longitude": 44.52267868357443, "stopType": "BUS", "lot": 14}, {"id": 321, "gisId": 321, "name": "Ա. Ամիրյան", "nameEn": "", "street": "Ա. Ամիրյան", "address": "", "community": "Կենտրոն", "latitude": 40.17963254440642, "longitude": 44.509790508325345, "stopType": "BUS", "lot": 14}, {"id": 322, "gisId": 322, "name": "Կորյունի", "nameEn": "", "street": "Կորյունի", "address": "7", "community": "Կենտրոն", "latitude": 40.187767309813516, "longitude": 44.52436664000853, "stopType": "BUS", "lot": 14}, {"id": 323, "gisId": 323, "name": "Կորյունի", "nameEn": "", "street": "Կորյունի", "address": "7", "community": "Կենտրոն", "latitude": 40.187483999986746, "longitude": 44.52457500033605, "stopType": "BUS", "lot": 14}, {"id": 324, "gisId": 324, "name": "Ծովակալ Իսակովի", "nameEn": "", "street": "Ծովակալ Իսակովի", "address": "", "community": "Կենտրոն", "latitude": 40.17203769778166, "longitude": 44.49189177108844, "stopType": "BUS", "lot": 14}, {"id": 325, "gisId": 325, "name": "Սեբաստիայի", "nameEn": "", "street": "Սեբաստիայի", "address": "", "community": "Մալաթիա-Սեբաստիա", "latitude": 40.16164163025703, "longitude": 44.467154391162296, "stopType": "BUS", "lot": 14}, {"id": 326, "gisId": 326, "name": "Սեբաստիայի", "nameEn": "", "street": "Սեբաստիայի", "address": "", "community": "Մալաթիա-Սեբաստիա", "latitude": 40.161752566128065, "longitude": 44.46681613006042, "stopType": "BUS", "lot": 14}, {"id": 327, "gisId": 327, "name": "Անդրանիկ Զորավարի", "nameEn": "", "street": "Անդրանիկ Զորավարի", "address": "", "community": "Մալաթիա-Սեբաստիա", "latitude": 40.1757377946636, "longitude": 44.44569990992297, "stopType": "BUS", "lot": 14}, {"id": 328, "gisId": 328, "name": "Ա. Միկոյան", "nameEn": "", "street": "Ա. Միկոյան", "address": "", "community": "Նոր Նորք", "latitude": 40.18266634167837, "longitude": 44.56753153515232, "stopType": "BUS", "lot": 14}, {"id": 329, "gisId": 329, "name": "Ա. Միկոյան", "nameEn": "", "street": "Ա. Միկոյան", "address": "", "community": "Նոր Նորք", "latitude": 40.1825470484076, "longitude": 44.567332049334645, "stopType": "BUS", "lot": 14}, {"id": 330, "gisId": 330, "name": "Գայի", "nameEn": "", "street": "Գայի", "address": "", "community": "Նոր Նորք", "latitude": 40.20595868824288, "longitude": 44.563614338331085, "stopType": "BUS", "lot": 14}, {"id": 331, "gisId": 331, "name": "Գայի", "nameEn": "", "street": "Գայի", "address": "", "community": "Նոր Նորք", "latitude": 40.20586807255358, "longitude": 44.56333529308946, "stopType": "BUS", "lot": 14}, {"id": 332, "gisId": 332, "name": "Օ. Դուրյանի", "nameEn": "", "street": "Օ. Դուրյանի", "address": "17/8", "community": "Նորք-Մարաշ", "latitude": 40.18796200134536, "longitude": 44.54652237390849, "stopType": "BUS", "lot": 14}, {"id": 333, "gisId": 333, "name": "Գ. Հովսեփյան", "nameEn": "", "street": "Գ. Հովսեփյան", "address": "", "community": "Նորք-Մարաշ", "latitude": 40.17478964932293, "longitude": 44.53806682032759, "stopType": "BUS", "lot": 14}, {"id": 334, "gisId": 334, "name": "Նորագավիթ 1-ին", "nameEn": "", "street": "Նորագավիթ 1-ին", "address": "", "community": "Շենգավիթ", "latitude": 40.1202344195829, "longitude": 44.47296870064512, "stopType": "BUS", "lot": 14}, {"id": 335, "gisId": 335, "name": "Արշակունյաց", "nameEn": "", "street": "Արշակունյաց", "address": "", "community": "Շենգավիթ", "latitude": 40.128788725019696, "longitude": 44.47676743696767, "stopType": "BUS", "lot": 14}, {"id": 336, "gisId": 336, "name": "Բագրատունյաց", "nameEn": "", "street": "Բագրատունյաց", "address": "", "community": "Շենգավիթ", "latitude": 40.14563189019968, "longitude": 44.490371736066855, "stopType": "BUS", "lot": 14}, {"id": 337, "gisId": 337, "name": "Հ. Բաբաջանյան", "nameEn": "", "street": "Հ. Բաբաջանյան", "address": "", "community": "Ավան", "latitude": 40.220764429435015, "longitude": 44.581844670894924, "stopType": "BUS", "lot": 15}, {"id": 338, "gisId": 338, "name": "Ազատության", "nameEn": "", "street": "Ազատության", "address": "", "community": "Արաբկիր", "latitude": 40.20313518304234, "longitude": 44.52328431761719, "stopType": "BUS", "lot": 15}, {"id": 339, "gisId": 339, "name": "Ազատության", "nameEn": "", "street": "Ազատության", "address": "", "community": "Արաբկիր", "latitude": 40.20306700004208, "longitude": 44.52326600022579, "stopType": "BUS", "lot": 15}, {"id": 340, "gisId": 340, "name": "Գ. Աղաբաբյան", "nameEn": "", "street": "Գ. Աղաբաբյան", "address": "32", "community": "Դավթաշեն", "latitude": 40.223285735448336, "longitude": 44.48898149839754, "stopType": "BUS", "lot": 15}, {"id": 341, "gisId": 341, "name": "Տիգրան Մեծի", "nameEn": "", "street": "Տիգրան Մեծի", "address": "", "community": "Էրեբունի", "latitude": 40.15965041343594, "longitude": 44.511998838575636, "stopType": "BUS", "lot": 15}, {"id": 342, "gisId": 342, "name": "Տիգրան Մեծի", "nameEn": "", "street": "Տիգրան Մեծի", "address": "", "community": "Էրեբունի", "latitude": 40.15980614543737, "longitude": 44.51165644958556, "stopType": "BUS", "lot": 15}, {"id": 343, "gisId": 343, "name": "Խաղաղ Դոնի", "nameEn": "", "street": "Խաղաղ Դոնի", "address": "", "community": "Էրեբունի", "latitude": 40.128515123374385, "longitude": 44.52502446081029, "stopType": "BUS", "lot": 15}, {"id": 344, "gisId": 344, "name": "Գ. Մահարու", "nameEn": "", "street": "Գ. Մահարու", "address": "", "community": "Էրեբունի", "latitude": 40.14213019635159, "longitude": 44.5347162809317, "stopType": "BUS", "lot": 15}, {"id": 345, "gisId": 345, "name": "Մ. Հերացու", "nameEn": "", "street": "Մ. Հերացու", "address": "", "community": "Կենտրոն", "latitude": 40.190498424063094, "longitude": 44.52959861778204, "stopType": "BUS", "lot": 15}, {"id": 346, "gisId": 346, "name": "Տիգրան Մեծի", "nameEn": "", "street": "Տիգրան Մեծի", "address": "49", "community": "Կենտրոն", "latitude": 40.163536502707544, "longitude": 44.513103948888194, "stopType": "BUS", "lot": 15}, {"id": 347, "gisId": 347, "name": "Ալ. Մանուկյան", "nameEn": "", "street": "Ալ. Մանուկյան", "address": "", "community": "Կենտրոն", "latitude": 40.174230935609216, "longitude": 44.522137872664786, "stopType": "BUS", "lot": 15}, {"id": 348, "gisId": 348, "name": "Ծովակալ Իսակովի", "nameEn": "", "street": "Ծովակալ Իսակովի", "address": "", "community": "Մալաթիա-Սեբաստիա", "latitude": 40.16626584619189, "longitude": 44.482266722930994, "stopType": "BUS", "lot": 15}, {"id": 349, "gisId": 349, "name": "Մալաթիայի", "nameEn": "", "street": "Մալաթիայի", "address": "", "community": "Մալաթիա-Սեբաստիա", "latitude": 40.173181798201476, "longitude": 44.463499460032125, "stopType": "BUS", "lot": 15}, {"id": 350, "gisId": 350, "name": "Բագրևանդի", "nameEn": "", "street": "Բագրևանդի", "address": "", "community": "Նոր Նորք", "latitude": 40.20685196774418, "longitude": 44.5771171687224, "stopType": "BUS", "lot": 15}, {"id": 351, "gisId": 351, "name": "Ա. Մյասնիկյան", "nameEn": "", "street": "Ա. Մյասնիկյան", "address": "", "community": "Նոր Նորք", "latitude": 40.20347179029101, "longitude": 44.556366531989944, "stopType": "BUS", "lot": 15}, {"id": 352, "gisId": 352, "name": "Նուբարաշենի 11-րդ", "nameEn": "", "street": "Նուբարաշենի 11-րդ", "address": "15", "community": "Նուբարաշեն", "latitude": 40.083841103783996, "longitude": 44.54554721023564, "stopType": "BUS", "lot": 15}, {"id": 353, "gisId": 353, "name": "Արշակունյաց", "nameEn": "", "street": "Արշակունյաց", "address": "", "community": "Շենգավիթ", "latitude": 40.137762089349025, "longitude": 44.49105498070288, "stopType": "BUS", "lot": 15}, {"id": 354, "gisId": 354, "name": "Բագրատունյաց", "nameEn": "", "street": "Բագրատունյաց", "address": "", "community": "Շենգավիթ", "latitude": 40.14413555231392, "longitude": 44.49243051535603, "stopType": "BUS", "lot": 15}, {"id": 355, "gisId": 355, "name": "Ծովակալ Իսակովի", "nameEn": "", "street": "Ծովակալ Իսակովի", "address": "", "community": "Շենգավիթ", "latitude": 40.16627958333619, "longitude": 44.48272997001216, "stopType": "BUS", "lot": 15}, {"id": 356, "gisId": 356, "name": "Արշակունյաց", "nameEn": "", "street": "Արշակունյաց", "address": "", "community": "Շենգավիթ", "latitude": 40.152775302338405, "longitude": 44.49900169876947, "stopType": "BUS", "lot": 15}, {"id": 357, "gisId": 357, "name": "Կ. Ուլնեցու 1-ին", "nameEn": "", "street": "Կ. Ուլնեցու 1-ին", "address": "", "community": "Քանաքեռ-Զեյթուն", "latitude": 40.20738494825682, "longitude": 44.53677256730021, "stopType": "BUS", "lot": 15}, {"id": 358, "gisId": 358, "name": "Զ. Սարկավագի", "nameEn": "", "street": "Զ. Սարկավագի", "address": "", "community": "Քանաքեռ-Զեյթուն", "latitude": 40.21719711655375, "longitude": 44.53504910113519, "stopType": "BUS", "lot": 15}, {"id": 359, "gisId": 359, "name": "Ա. Մյասնիկյան", "nameEn": "", "street": "Ա. Մյասնիկյան", "address": "", "community": "Քանաքեռ-Զեյթուն", "latitude": 40.20334447506759, "longitude": 44.555828010754155, "stopType": "BUS", "lot": 15}, {"id": 360, "gisId": 360, "name": "Ազատության", "nameEn": "", "street": "Ազատության", "address": "", "community": "Քանաքեռ-Զեյթուն", "latitude": 40.2081441217539, "longitude": 44.52856505573275, "stopType": "BUS", "lot": 15}, {"id": 361, "gisId": 361, "name": "Կոմիտասի", "nameEn": "", "street": "Կոմիտասի", "address": "", "community": "Արաբկիր", "latitude": 40.20409875715196, "longitude": 44.50146901398388, "stopType": "BUS", "lot": 16}, {"id": 362, "gisId": 362, "name": "Կոմիտասի", "nameEn": "", "street": "Կոմիտասի", "address": "", "community": "Արաբկիր", "latitude": 40.204092999692264, "longitude": 44.501454999848455, "stopType": "BUS", "lot": 16}, {"id": 363, "gisId": 363, "name": "Վ. Վաղարշյան", "nameEn": "", "street": "Վ. Վաղարշյան", "address": "", "community": "Արաբկիր", "latitude": 40.2046240529578, "longitude": 44.49734008078017, "stopType": "BUS", "lot": 16}, {"id": 364, "gisId": 364, "name": "Էրեբունու", "nameEn": "", "street": "Էրեբունու", "address": "", "community": "Էրեբունի", "latitude": 40.1417926457141, "longitude": 44.521401006851015, "stopType": "BUS", "lot": 16}, {"id": 365, "gisId": 365, "name": "Արցախի", "nameEn": "", "street": "Արցախի", "address": "", "community": "Էրեբունի", "latitude": 40.147735661671604, "longitude": 44.509890512936856, "stopType": "BUS", "lot": 16}, {"id": 366, "gisId": 366, "name": "Տիգրան Մեծի", "nameEn": "", "street": "Տիգրան Մեծի", "address": "", "community": "Կենտրոն", "latitude": 40.16487711758496, "longitude": 44.512867086347036, "stopType": "BUS", "lot": 16}, {"id": 367, "gisId": 367, "name": "Ա. Մյասնիկյան", "nameEn": "", "street": "Ա. Մյասնիկյան", "address": "", "community": "Կենտրոն", "latitude": 40.19204075777483, "longitude": 44.53146901068637, "stopType": "BUS", "lot": 16}, {"id": 368, "gisId": 368, "name": "Ա. Բաբաջանյան", "nameEn": "", "street": "Ա. Բաբաջանյան", "address": "", "community": "Մալաթիա-Սեբաստիա", "latitude": 40.165749021999815, "longitude": 44.43960537528794, "stopType": "BUS", "lot": 16}, {"id": 369, "gisId": 369, "name": "Ա. Բաբաջանյան", "nameEn": "", "street": "Ա. Բաբաջանյան", "address": "", "community": "Մալաթիա-Սեբաստիա", "latitude": 40.16591771413128, "longitude": 44.440052733147176, "stopType": "BUS", "lot": 16}, {"id": 370, "gisId": 370, "name": "Սեբաստիայի", "nameEn": "", "street": "Սեբաստիայի", "address": "", "community": "Մալաթիա-Սեբաստիա", "latitude": 40.18600097206723, "longitude": 44.46167727708476, "stopType": "BUS", "lot": 16}, {"id": 371, "gisId": 371, "name": "Գուսան Շերամի", "nameEn": "", "street": "Գուսան Շերամի", "address": "", "community": "Մալաթիա-Սեբաստիա", "latitude": 40.17842321885652, "longitude": 44.44048371704999, "stopType": "BUS", "lot": 16}, {"id": 372, "gisId": 372, "name": "Շոպրոնի", "nameEn": "", "street": "Շոպրոնի", "address": "", "community": "Նոր Նորք", "latitude": 40.18627343337229, "longitude": 44.55874041843562, "stopType": "BUS", "lot": 16}, {"id": 373, "gisId": 373, "name": "Շոպրոնի", "nameEn": "", "street": "Շոպրոնի", "address": "", "community": "Նոր Նորք", "latitude": 40.18638186373213, "longitude": 44.55889611986008, "stopType": "BUS", "lot": 16}, {"id": 374, "gisId": 374, "name": "Գայի", "nameEn": "", "street": "Գայի", "address": "", "community": "Նոր Նորք", "latitude": 40.19683573428179, "longitude": 44.56847667585798, "stopType": "BUS", "lot": 16}, {"id": 375, "gisId": 375, "name": "Նուբարաշենի 6-րդ", "nameEn": "", "street": "Նուբարաշենի 6-րդ", "address": "", "community": "Նուբարաշեն", "latitude": 40.096177511682924, "longitude": 44.55314414058969, "stopType": "BUS", "lot": 16}, {"id": 376, "gisId": 376, "name": "Արտաշիսյան", "nameEn": "", "street": "Արտաշիսյան", "address": "", "community": "Շենգավիթ", "latitude": 40.14943924922212, "longitude": 44.472343727581055, "stopType": "BUS", "lot": 16}, {"id": 377, "gisId": 377, "name": "Թամանցիների", "nameEn": "", "street": "Թամանցիների", "address": "", "community": "Շենգավիթ", "latitude": 40.14060105299628, "longitude": 44.49753114894349, "stopType": "BUS", "lot": 16}, {"id": 378, "gisId": 378, "name": "Ներքին Չարբախ 3-րդ", "nameEn": "", "street": "Ներքին Չարբախ 3-րդ", "address": "", "community": "Շենգավիթ", "latitude": 40.12779536986058, "longitude": 44.444997000711034, "stopType": "BUS", "lot": 16}, {"id": 379, "gisId": 379, "name": "Արշակունյաց", "nameEn": "", "street": "Արշակունյաց", "address": "", "community": "Շենգավիթ", "latitude": 40.13124704071837, "longitude": 44.483061791068884, "stopType": "BUS", "lot": 16}, {"id": 380, "gisId": 380, "name": "Թբիլիսյան", "nameEn": "", "street": "Թբիլիսյան", "address": "", "community": "Քանաքեռ-Զեյթուն", "latitude": 40.22666236417684, "longitude": 44.53557886027625, "stopType": "BUS", "lot": 16}, {"id": 381, "gisId": 381, "name": "Դավիթ Անհաղթի", "nameEn": "", "street": "Դավիթ Անհաղթի", "address": "", "community": "Քանաքեռ-Զեյթուն", "latitude": 40.203915798175686, "longitude": 44.529366386749416, "stopType": "BUS", "lot": 16}, {"id": 382, "gisId": 382, "name": "Զ. Քանաքեռցու", "nameEn": "", "street": "Զ. Քանաքեռցու", "address": "", "community": "Քանաքեռ-Զեյթուն", "latitude": 40.22321688784917, "longitude": 44.545218695986094, "stopType": "BUS", "lot": 16}, {"id": 383, "gisId": 383, "name": "Կ. Ուլնեցու", "nameEn": "", "street": "Կ. Ուլնեցու", "address": "", "community": "Քանաքեռ-Զեյթուն", "latitude": 40.20437994997471, "longitude": 44.535368337978504, "stopType": "BUS", "lot": 16}, {"id": 384, "gisId": 384, "name": "Ա. Ահարոնյան", "nameEn": "", "street": "Ա. Ահարոնյան", "address": "", "community": "Քանաքեռ-Զեյթուն", "latitude": 40.20447955978397, "longitude": 44.53556170031227, "stopType": "BUS", "lot": 16}, {"id": 385, "gisId": 10003, "name": "ԱՋԱՓՆՅԱԿ", "nameEn": "", "street": "", "address": "", "community": "", "latitude": 40.19963307017158, "longitude": 44.47703977189923, "stopType": "METRO", "lot": 0}, {"id": 386, "gisId": 10007, "name": "ԲԱՐԵԿԱՄՈՒԹՅՈՒՆ", "nameEn": "", "street": "", "address": "", "community": "", "latitude": 40.1979377431242, "longitude": 44.49454715255749, "stopType": "METRO", "lot": 0}, {"id": 387, "gisId": 10012, "name": "ՄԱՐՇԱԼ ԲԱԳՐԱՄՅԱՆ", "nameEn": "", "street": "", "address": "", "community": "", "latitude": 40.192052205949, "longitude": 44.50615382171124, "stopType": "METRO", "lot": 0}, {"id": 388, "gisId": 10014, "name": "ԵՐԻՏԱՍԱՐԴԱԿԱՆ", "nameEn": "", "street": "", "address": "", "community": "", "latitude": 40.18788597313477, "longitude": 44.52166878847662, "stopType": "METRO", "lot": 0}, {"id": 389, "gisId": 10018, "name": "ՀԱՆՐԱՊԵՏՈՒԹՅԱՆ ՀՐԱՊԱՐԱԿ", "nameEn": "", "street": "", "address": "", "community": "", "latitude": 40.17864272075248, "longitude": 44.516027449340754, "stopType": "METRO", "lot": 0}, {"id": 390, "gisId": 10023, "name": "ԶՈՐԱՎԱՐ ԱՆԴՐԱՆԻԿ", "nameEn": "", "street": "", "address": "", "community": "", "latitude": 40.17182298209231, "longitude": 44.51359409469573, "stopType": "METRO", "lot": 0}, {"id": 391, "gisId": 10027, "name": "ԳՈՐԾԱՐԱՆԱՅԻՆ", "nameEn": "", "street": "", "address": "", "community": "", "latitude": 40.141328686316065, "longitude": 44.4988162504182, "stopType": "METRO", "lot": 0}, {"id": 392, "gisId": 10028, "name": "ՍԱՍՈՒՆՑԻ ԴԱՎԻԹ", "nameEn": "", "street": "", "address": "", "community": "", "latitude": 40.155482729617106, "longitude": 44.50771111683326, "stopType": "METRO", "lot": 0}, {"id": 393, "gisId": 10029, "name": "ՇԵՆԳԱՎԻԹ", "nameEn": "", "street": "", "address": "", "community": "", "latitude": 40.14560180067481, "longitude": 44.48543530617039, "stopType": "METRO", "lot": 0}, {"id": 394, "gisId": 10030, "name": "ԳԱՐԵԳԻՆ ՆԺԴԵՀ", "nameEn": "", "street": "", "address": "", "community": "", "latitude": 40.15104572379643, "longitude": 44.48423751053684, "stopType": "METRO", "lot": 0}], "routes": [{"id": 1, "routeNumber": "1", "routeName": "Radial Route 1", "routeType": "BUS", "color": "#E53935", "avgIntervalMinutes": 12, "operatingHours": "07:00-22:00"}, {"id": 2, "routeNumber": "2", "routeName": "Radial Route 2", "routeType": "BUS", "color": "#D81B60", "avgIntervalMinutes": 14, "operatingHours": "07:00-22:00"}, {"id": 3, "routeNumber": "3", "routeName": "Radial Route 3", "routeType": "BUS", "color": "#8E24AA", "avgIntervalMinutes": 12, "operatingHours": "07:00-22:00"}, {"id": 4, "routeNumber": "4", "routeName": "Radial Route 4", "routeType": "BUS", "color": "#5E35B1", "avgIntervalMinutes": 10, "operatingHours": "07:00-22:00"}, {"id": 5, "routeNumber": "5", "routeName": "Radial Route 5", "routeType": "BUS", "color": "#3949AB", "avgIntervalMinutes": 7, "operatingHours": "07:00-22:00"}, {"id": 6, "routeNumber": "6", "routeName": "Radial Route 6", "routeType": "BUS", "color": "#1E88E5", "avgIntervalMinutes": 14, "operatingHours": "07:00-22:00"}, {"id": 7, "routeNumber": "7", "routeName": "Radial Route 7", "routeType": "BUS", "color": "#039BE5", "avgIntervalMinutes": 12, "operatingHours": "07:00-22:00"}, {"id": 8, "routeNumber": "8", "routeName": "Radial Route 8", "routeType": "BUS", "color": "#00ACC1", "avgIntervalMinutes": 5, "operatingHours": "07:00-22:00"}, {"id": 9, "routeNumber": "10", "routeName": "East-West Route 10", "routeType": "BUS", "color": "#00897B", "avgIntervalMinutes": 6, "operatingHours": "07:00-22:00"}, {"id": 10, "routeNumber": "11", "routeName": "East-West Route 11", "routeType": "BUS", "color": "#43A047", "avgIntervalMinutes": 7, "operatingHours": "07:00-22:00"}, {"id": 11, "routeNumber": "12", "routeName": "East-West Route 12", "routeType": "BUS", "color": "#7CB342", "avgIntervalMinutes": 6, "operatingHours": "07:00-22:00"}, {"id": 12, "routeNumber": "13", "routeName": "East-West Route 13", "routeType": "BUS", "color": "#C0CA33", "avgIntervalMinutes": 14, "operatingHours": "07:00-22:00"}, {"id": 13, "routeNumber": "14", "routeName": "East-West Route 14", "routeType": "BUS", "color": "#FDD835", "avgIntervalMinutes": 14, "operatingHours": "07:00-22:00"}, {"id": 14, "routeNumber": "20", "routeName": "North-South Route 20", "routeType": "BUS", "color": "#FFB300", "avgIntervalMinutes": 15, "operatingHours": "07:00-22:00"}, {"id": 15, "routeNumber": "21", "routeName": "North-South Route 21", "routeType": "BUS", "color": "#FB8C00", "avgIntervalMinutes": 13, "operatingHours": "07:00-22:00"}, {"id": 16, "routeNumber": "22", "routeName": "North-South Route 22", "routeType": "BUS", "color": "#F4511E", "avgIntervalMinutes": 8, "operatingHours": "07:00-22:00"}, {"id": 17, "routeNumber": "23", "routeName": "North-South Route 23", "routeType": "BUS", "color": "#6D4C41", "avgIntervalMinutes": 15, "operatingHours": "07:00-22:00"}, {"id": 18, "routeNumber": "24", "routeName": "North-South Route 24", "routeType": "BUS", "color": "#546E7A", "avgIntervalMinutes": 9, "operatingHours": "07:00-22:00"}, {"id": 19, "routeNumber": "30", "routeName": "Community Route Աջափնյակ", "routeType": "BUS", "color": "#E53935", "avgIntervalMinutes": 14, "operatingHours": "07:00-22:00"}, {"id": 20, "routeNumber": "31", "routeName": "Community Route Ավան", "routeType": "BUS", "color": "#D81B60", "avgIntervalMinutes": 11, "operatingHours": "07:00-22:00"}, {"id": 21, "routeNumber": "32", "routeName": "Community Route Արաբկիր", "routeType": "BUS", "color": "#8E24AA", "avgIntervalMinutes": 9, "operatingHours": "07:00-22:00"}, {"id": 22, "routeNumber": "33", "routeName": "Community Route Դավթաշեն", "routeType": "BUS", "color": "#5E35B1", "avgIntervalMinutes": 12, "operatingHours": "07:00-22:00"}, {"id": 23, "routeNumber": "34", "routeName": "Community Route Էրեբունի", "routeType": "BUS", "color": "#3949AB", "avgIntervalMinutes": 13, "operatingHours": "07:00-22:00"}, {"id": 24, "routeNumber": "35", "routeName": "Community Route Կենտրոն", "routeType": "BUS", "color": "#1E88E5", "avgIntervalMinutes": 9, "operatingHours": "07:00-22:00"}, {"id": 25, "routeNumber": "36", "routeName": "Community Route Մալաթիա-Սեբաստիա", "routeType": "BUS", "color": "#039BE5", "avgIntervalMinutes": 14, "operatingHours": "07:00-22:00"}, {"id": 26, "routeNumber": "37", "routeName": "Community Route Նոր Նորք", "routeType": "BUS", "color": "#00ACC1", "avgIntervalMinutes": 5, "operatingHours": "07:00-22:00"}, {"id": 27, "routeNumber": "38", "routeName": "Community Route Նորք-Մարաշ", "routeType": "BUS", "color": "#00897B", "avgIntervalMinutes": 8, "operatingHours": "07:00-22:00"}, {"id": 28, "routeNumber": "39", "routeName": "Community Route Նուբարաշեն", "routeType": "BUS", "color": "#43A047", "avgIntervalMinutes": 12, "operatingHours": "07:00-22:00"}, {"id": 29, "routeNumber": "40", "routeName": "Community Route Շենգավիթ", "routeType": "BUS", "color": "#7CB342", "avgIntervalMinutes": 14, "operatingHours": "07:00-22:00"}, {"id": 30, "routeNumber": "41", "routeName": "Community Route Քանաքեռ-Զեյթուն", "routeType": "BUS", "color": "#C0CA33", "avgIntervalMinutes": 8, "operatingHours": "07:00-22:00"}, {"id": 31, "routeNumber": "M1", "routeName": "Metro Line 1", "routeType": "METRO", "color": "#E53935", "avgIntervalMinutes": 5, "operatingHours": "06:30-23:30"}, {"id": 32, "routeNumber": "50", "routeName": "Connector Route 50", "routeType": "BUS", "color": "#E53935", "avgIntervalMinutes": 6, "operatingHours": "07:00-22:00"}, {"id": 33, "routeNumber": "51", "routeName": "Connector Route 51", "routeType": "BUS", "color": "#D81B60", "avgIntervalMinutes": 9, "operatingHours": "07:00-22:00"}, {"id": 34, "routeNumber": "52", "routeName": "Connector Route 52", "routeType": "BUS", "color": "#8E24AA", "avgIntervalMinutes": 10, "operatingHours": "07:00-22:00"}, {"id": 35, "routeNumber": "53", "routeName": "Connector Route 53", "routeType": "BUS", "color": "#5E35B1", "avgIntervalMinutes": 14, "operatingHours": "07:00-22:00"}, {"id": 36, "routeNumber": "54", "routeName": "Connector Route 54", "routeType": "BUS", "color": "#3949AB", "avgIntervalMinutes": 5, "operatingHours": "07:00-22:00"}, {"id": 37, "routeNumber": "55", "routeName": "Connector Route 55", "routeType": "BUS", "color": "#1E88E5", "avgIntervalMinutes": 13, "operatingHours": "07:00-22:00"}, {"id": 38, "routeNumber": "56", "routeName": "Connector Route 56", "routeType": "BUS", "color": "#039BE5", "avgIntervalMinutes": 14, "operatingHours": "07:00-22:00"}, {"id": 39, "routeNumber": "57", "routeName": "Connector Route 57", "routeType": "BUS", "color": "#00ACC1", "avgIntervalMinutes": 13, "operatingHours": "07:00-22:00"}, {"id": 40, "routeNumber": "58", "routeName": "Connector Route 58", "routeType": "BUS", "color": "#00897B", "avgIntervalMinutes": 12, "operatingHours": "07:00-22:00"}, {"id": 41, "routeNumber": "59", "routeName": "Connector Route 59", "routeType": "BUS", "color": "#43A047", "avgIntervalMinutes": 13, "operatingHours": "07:00-22:00"}, {"id": 42, "routeNumber": "60", "routeName": "Connector Route 60", "routeType": "BUS", "color": "#7CB342", "avgIntervalMinutes": 6, "operatingHours": "07:00-22:00"}, {"id": 43, "routeNumber": "61", "routeName": "Connector Route 61", "routeType": "BUS", "color": "#C0CA33", "avgIntervalMinutes": 15, "operatingHours": "07:00-22:00"}, {"id": 44, "routeNumber": "62", "routeName": "Connector Route 62", "routeType": "BUS", "color": "#FDD835", "avgIntervalMinutes": 15, "operatingHours": "07:00-22:00"}, {"id": 45, "routeNumber": "63", "routeName": "Connector Route 63", "routeType": "BUS", "color": "#FFB300", "avgIntervalMinutes": 14, "operatingHours": "07:00-22:00"}, {"id": 46, "routeNumber": "64", "routeName": "Connector Route 64", "routeType": "BUS", "color": "#FB8C00", "avgIntervalMinutes": 15, "operatingHours": "07:00-22:00"}, {"id": 47, "routeNumber": "65", "routeName": "Connector Route 65", "routeType": "BUS", "color": "#F4511E", "avgIntervalMinutes": 7, "operatingHours": "07:00-22:00"}, {"id": 48, "routeNumber": "66", "routeName": "Connector Route 66", "routeType": "BUS", "color": "#6D4C41", "avgIntervalMinutes": 10, "operatingHours": "07:00-22:00"}, {"id": 49, "routeNumber": "67", "routeName": "Connector Route 67", "routeType": "BUS", "color": "#546E7A", "avgIntervalMinutes": 5, "operatingHours": "07:00-22:00"}, {"id": 50, "routeNumber": "68", "routeName": "Connector Route 68", "routeType": "BUS", "color": "#2196F3", "avgIntervalMinutes": 12, "operatingHours": "07:00-22:00"}, {"id": 51, "routeNumber": "69", "routeName": "Connector Route 69", "routeType": "BUS", "color": "#4CAF50", "avgIntervalMinutes": 5, "operatingHours": "07:00-22:00"}, {"id": 52, "routeNumber": "70", "routeName": "Connector Route 70", "routeType": "BUS", "color": "#E53935", "avgIntervalMinutes": 14, "operatingHours": "07:00-22:00"}, {"id": 53, "routeNumber": "71", "routeName": "Connector Route 71", "routeType": "BUS", "color": "#D81B60", "avgIntervalMinutes": 13, "operatingHours": "07:00-22:00"}, {"id": 54, "routeNumber": "72", "routeName": "Connector Route 72", "routeType": "BUS", "color": "#8E24AA", "avgIntervalMinutes": 11, "operatingHours": "07:00-22:00"}, {"id": 55, "routeNumber": "100", "routeName": "Express North-South", "routeType": "BUS", "color": "#FF5722", "avgIntervalMinutes": 5, "operatingHours": "07:00-22:00"}, {"id": 56, "routeNumber": "101", "routeName": "Express East-West", "routeType": "BUS", "color": "#9C27B0", "avgIntervalMinutes": 10, "operatingHours": "07:00-22:00"}], "routeStopRefs": [{"routeId": 1, "stopId": 154, "stopOrder": 0, "distanceFromPrevMeters": 0, "timeFromPrevSeconds": 0}, {"routeId": 1, "stopId": 148, "stopOrder": 1, "distanceFromPrevMeters": 1601, "timeFromPrevSeconds": 320}, {"routeId": 1, "stopId": 103, "stopOrder": 2, "distanceFromPrevMeters": 253, "timeFromPrevSeconds": 60}, {"routeId": 1, "stopId": 361, "stopOrder": 3, "distanceFromPrevMeters": 234, "timeFromPrevSeconds": 60}, {"routeId": 1, "stopId": 52, "stopOrder": 4, "distanceFromPrevMeters": 402, "timeFromPrevSeconds": 80}, {"routeId": 1, "stopId": 291, "stopOrder": 5, "distanceFromPrevMeters": 388, "timeFromPrevSeconds": 77}, {"routeId": 1, "stopId": 316, "stopOrder": 6, "distanceFromPrevMeters": 445, "timeFromPrevSeconds": 89}, {"routeId": 1, "stopId": 126, "stopOrder": 7, "distanceFromPrevMeters": 317, "timeFromPrevSeconds": 63}, {"routeId": 1, "stopId": 30, "stopOrder": 8, "distanceFromPrevMeters": 51, "timeFromPrevSeconds": 60}, {"routeId": 1, "stopId": 53, "stopOrder": 9, "distanceFromPrevMeters": 339, "timeFromPrevSeconds": 67}, {"routeId": 1, "stopId": 170, "stopOrder": 10, "distanceFromPrevMeters": 358, "timeFromPrevSeconds": 71}, {"routeId": 1, "stopId": 169, "stopOrder": 11, "distanceFromPrevMeters": 762, "timeFromPrevSeconds": 152}, {"routeId": 1, "stopId": 120, "stopOrder": 12, "distanceFromPrevMeters": 1008, "timeFromPrevSeconds": 201}, {"routeId": 1, "stopId": 358, "stopOrder": 13, "distanceFromPrevMeters": 614, "timeFromPrevSeconds": 122}, {"routeId": 1, "stopId": 380, "stopOrder": 14, "distanceFromPrevMeters": 1053, "timeFromPrevSeconds": 210}, {"routeId": 2, "stopId": 321, "stopOrder": 0, "distanceFromPrevMeters": 0, "timeFromPrevSeconds": 0}, {"routeId": 2, "stopId": 262, "stopOrder": 1, "distanceFromPrevMeters": 1935, "timeFromPrevSeconds": 387}, {"routeId": 2, "stopId": 367, "stopOrder": 2, "distanceFromPrevMeters": 1301, "timeFromPrevSeconds": 260}, {"routeId": 2, "stopId": 95, "stopOrder": 3, "distanceFromPrevMeters": 935, "timeFromPrevSeconds": 187}, {"routeId": 2, "stopId": 384, "stopOrder": 4, "distanceFromPrevMeters": 582, "timeFromPrevSeconds": 116}, {"routeId": 2, "stopId": 22, "stopOrder": 5, "distanceFromPrevMeters": 606, "timeFromPrevSeconds": 121}, {"routeId": 2, "stopId": 288, "stopOrder": 6, "distanceFromPrevMeters": 1290, "timeFromPrevSeconds": 258}, {"routeId": 2, "stopId": 257, "stopOrder": 7, "distanceFromPrevMeters": 3826, "timeFromPrevSeconds": 765}, {"routeId": 2, "stopId": 205, "stopOrder": 8, "distanceFromPrevMeters": 746, "timeFromPrevSeconds": 149}, {"routeId": 2, "stopId": 138, "stopOrder": 9, "distanceFromPrevMeters": 2397, "timeFromPrevSeconds": 479}, {"routeId": 2, "stopId": 28, "stopOrder": 10, "distanceFromPrevMeters": 1161, "timeFromPrevSeconds": 232}, {"routeId": 2, "stopId": 350, "stopOrder": 11, "distanceFromPrevMeters": 1459, "timeFromPrevSeconds": 291}, {"routeId": 2, "stopId": 3, "stopOrder": 12, "distanceFromPrevMeters": 1506, "timeFromPrevSeconds": 301}, {"routeId": 3, "stopId": 83, "stopOrder": 0, "distanceFromPrevMeters": 0, "timeFromPrevSeconds": 0}, {"routeId": 3, "stopId": 202, "stopOrder": 1, "distanceFromPrevMeters": 340, "timeFromPrevSeconds": 68}, {"routeId": 3, "stopId": 35, "stopOrder": 2, "distanceFromPrevMeters": 1053, "timeFromPrevSeconds": 210}, {"routeId": 3, "stopId": 347, "stopOrder": 3, "distanceFromPrevMeters": 1216, "timeFromPrevSeconds": 243}, {"routeId": 3, "stopId": 300, "stopOrder": 4, "distanceFromPrevMeters": 819, "timeFromPrevSeconds": 163}, {"routeId": 3, "stopId": 226, "stopOrder": 5, "distanceFromPrevMeters": 1336, "timeFromPrevSeconds": 267}, {"routeId": 3, "stopId": 57, "stopOrder": 6, "distanceFromPrevMeters": 343, "timeFromPrevSeconds": 68}, {"routeId": 3, "stopId": 333, "stopOrder": 7, "distanceFromPrevMeters": 926, "timeFromPrevSeconds": 185}, {"routeId": 3, "stopId": 88, "stopOrder": 8, "distanceFromPrevMeters": 412, "timeFromPrevSeconds": 82}, {"routeId": 3, "stopId": 200, "stopOrder": 9, "distanceFromPrevMeters": 1060, "timeFromPrevSeconds": 212}, {"routeId": 3, "stopId": 268, "stopOrder": 10, "distanceFromPrevMeters": 1280, "timeFromPrevSeconds": 256}, {"routeId": 3, "stopId": 185, "stopOrder": 11, "distanceFromPrevMeters": 3741, "timeFromPrevSeconds": 748}, {"routeId": 3, "stopId": 65, "stopOrder": 12, "distanceFromPrevMeters": 483, "timeFromPrevSeconds": 96}, {"routeId": 4, "stopId": 130, "stopOrder": 0, "distanceFromPrevMeters": 0, "timeFromPrevSeconds": 0}, {"routeId": 4, "stopId": 298, "stopOrder": 1, "distanceFromPrevMeters": 768, "timeFromPrevSeconds": 153}, {"routeId": 4, "stopId": 283, "stopOrder": 2, "distanceFromPrevMeters": 549, "timeFromPrevSeconds": 109}, {"routeId": 4, "stopId": 311, "stopOrder": 3, "distanceFromPrevMeters": 319, "timeFromPrevSeconds": 63}, {"routeId": 4, "stopId": 68, "stopOrder": 4, "distanceFromPrevMeters": 594, "timeFromPrevSeconds": 118}, {"routeId": 4, "stopId": 365, "stopOrder": 5, "distanceFromPrevMeters": 698, "timeFromPrevSeconds": 139}, {"routeId": 4, "stopId": 33, "stopOrder": 6, "distanceFromPrevMeters": 582, "timeFromPrevSeconds": 116}, {"routeId": 4, "stopId": 364, "stopOrder": 7, "distanceFromPrevMeters": 845, "timeFromPrevSeconds": 169}, {"routeId": 4, "stopId": 260, "stopOrder": 8, "distanceFromPrevMeters": 1934, "timeFromPrevSeconds": 386}, {"routeId": 4, "stopId": 223, "stopOrder": 9, "distanceFromPrevMeters": 2862, "timeFromPrevSeconds": 572}, {"routeId": 4, "stopId": 9, "stopOrder": 10, "distanceFromPrevMeters": 1400, "timeFromPrevSeconds": 280}, {"routeId": 4, "stopId": 54, "stopOrder": 11, "distanceFromPrevMeters": 1379, "timeFromPrevSeconds": 275}, {"routeId": 4, "stopId": 89, "stopOrder": 12, "distanceFromPrevMeters": 4888, "timeFromPrevSeconds": 977}, {"routeId": 5, "stopId": 12, "stopOrder": 0, "distanceFromPrevMeters": 0, "timeFromPrevSeconds": 0}, {"routeId": 5, "stopId": 271, "stopOrder": 1, "distanceFromPrevMeters": 455, "timeFromPrevSeconds": 91}, {"routeId": 5, "stopId": 46, "stopOrder": 2, "distanceFromPrevMeters": 2279, "timeFromPrevSeconds": 455}, {"routeId": 5, "stopId": 45, "stopOrder": 3, "distanceFromPrevMeters": 1712, "timeFromPrevSeconds": 342}, {"routeId": 5, "stopId": 19, "stopOrder": 4, "distanceFromPrevMeters": 200, "timeFromPrevSeconds": 60}, {"routeId": 5, "stopId": 235, "stopOrder": 5, "distanceFromPrevMeters": 1577, "timeFromPrevSeconds": 315}, {"routeId": 5, "stopId": 70, "stopOrder": 6, "distanceFromPrevMeters": 1839, "timeFromPrevSeconds": 367}, {"routeId": 5, "stopId": 336, "stopOrder": 7, "distanceFromPrevMeters": 1294, "timeFromPrevSeconds": 258}, {"routeId": 5, "stopId": 376, "stopOrder": 8, "distanceFromPrevMeters": 1589, "timeFromPrevSeconds": 317}, {"routeId": 5, "stopId": 115, "stopOrder": 9, "distanceFromPrevMeters": 403, "timeFromPrevSeconds": 80}, {"routeId": 5, "stopId": 187, "stopOrder": 10, "distanceFromPrevMeters": 2213, "timeFromPrevSeconds": 442}, {"routeId": 5, "stopId": 379, "stopOrder": 11, "distanceFromPrevMeters": 875, "timeFromPrevSeconds": 175}, {"routeId": 5, "stopId": 18, "stopOrder": 12, "distanceFromPrevMeters": 2188, "timeFromPrevSeconds": 437}, {"routeId": 5, "stopId": 213, "stopOrder": 13, "distanceFromPrevMeters": 2834, "timeFromPrevSeconds": 566}, {"routeId": 6, "stopId": 270, "stopOrder": 0, "distanceFromPrevMeters": 0, "timeFromPrevSeconds": 0}, {"routeId": 6, "stopId": 355, "stopOrder": 1, "distanceFromPrevMeters": 1681, "timeFromPrevSeconds": 336}, {"routeId": 6, "stopId": 325, "stopOrder": 2, "distanceFromPrevMeters": 1420, "timeFromPrevSeconds": 284}, {"routeId": 6, "stopId": 274, "stopOrder": 3, "distanceFromPrevMeters": 1943, "timeFromPrevSeconds": 388}, {"routeId": 6, "stopId": 231, "stopOrder": 4, "distanceFromPrevMeters": 421, "timeFromPrevSeconds": 84}, {"routeId": 6, "stopId": 84, "stopOrder": 5, "distanceFromPrevMeters": 152, "timeFromPrevSeconds": 60}, {"routeId": 6, "stopId": 112, "stopOrder": 6, "distanceFromPrevMeters": 669, "timeFromPrevSeconds": 133}, {"routeId": 6, "stopId": 132, "stopOrder": 7, "distanceFromPrevMeters": 1009, "timeFromPrevSeconds": 201}, {"routeId": 6, "stopId": 301, "stopOrder": 8, "distanceFromPrevMeters": 377, "timeFromPrevSeconds": 75}, {"routeId": 6, "stopId": 228, "stopOrder": 9, "distanceFromPrevMeters": 538, "timeFromPrevSeconds": 107}, {"routeId": 6, "stopId": 61, "stopOrder": 10, "distanceFromPrevMeters": 479, "timeFromPrevSeconds": 95}, {"routeId": 6, "stopId": 371, "stopOrder": 11, "distanceFromPrevMeters": 1328, "timeFromPrevSeconds": 265}, {"routeId": 6, "stopId": 109, "stopOrder": 12, "distanceFromPrevMeters": 1423, "timeFromPrevSeconds": 284}, {"routeId": 6, "stopId": 163, "stopOrder": 13, "distanceFromPrevMeters": 2061, "timeFromPrevSeconds": 412}, {"routeId": 6, "stopId": 369, "stopOrder": 14, "distanceFromPrevMeters": 2139, "timeFromPrevSeconds": 427}, {"routeId": 7, "stopId": 208, "stopOrder": 0, "distanceFromPrevMeters": 0, "timeFromPrevSeconds": 0}, {"routeId": 7, "stopId": 225, "stopOrder": 1, "distanceFromPrevMeters": 0, "timeFromPrevSeconds": 60}, {"routeId": 7, "stopId": 224, "stopOrder": 2, "distanceFromPrevMeters": 5, "timeFromPrevSeconds": 60}, {"routeId": 7, "stopId": 289, "stopOrder": 3, "distanceFromPrevMeters": 1465, "timeFromPrevSeconds": 293}, {"routeId": 7, "stopId": 290, "stopOrder": 4, "distanceFromPrevMeters": 27, "timeFromPrevSeconds": 60}, {"routeId": 7, "stopId": 370, "stopOrder": 5, "distanceFromPrevMeters": 2124, "timeFromPrevSeconds": 424}, {"routeId": 7, "stopId": 230, "stopOrder": 6, "distanceFromPrevMeters": 354, "timeFromPrevSeconds": 70}, {"routeId": 7, "stopId": 203, "stopOrder": 7, "distanceFromPrevMeters": 93, "timeFromPrevSeconds": 60}, {"routeId": 7, "stopId": 135, "stopOrder": 8, "distanceFromPrevMeters": 944, "timeFromPrevSeconds": 188}, {"routeId": 7, "stopId": 133, "stopOrder": 9, "distanceFromPrevMeters": 41, "timeFromPrevSeconds": 60}, {"routeId": 7, "stopId": 111, "stopOrder": 10, "distanceFromPrevMeters": 513, "timeFromPrevSeconds": 102}, {"routeId": 7, "stopId": 110, "stopOrder": 11, "distanceFromPrevMeters": 26, "timeFromPrevSeconds": 60}, {"routeId": 7, "stopId": 63, "stopOrder": 12, "distanceFromPrevMeters": 224, "timeFromPrevSeconds": 60}, {"routeId": 7, "stopId": 273, "stopOrder": 13, "distanceFromPrevMeters": 1075, "timeFromPrevSeconds": 215}, {"routeId": 7, "stopId": 254, "stopOrder": 14, "distanceFromPrevMeters": 470, "timeFromPrevSeconds": 94}, {"routeId": 8, "stopId": 11, "stopOrder": 0, "distanceFromPrevMeters": 0, "timeFromPrevSeconds": 0}, {"routeId": 8, "stopId": 123, "stopOrder": 1, "distanceFromPrevMeters": 1435, "timeFromPrevSeconds": 287}, {"routeId": 8, "stopId": 245, "stopOrder": 2, "distanceFromPrevMeters": 406, "timeFromPrevSeconds": 81}, {"routeId": 8, "stopId": 29, "stopOrder": 3, "distanceFromPrevMeters": 571, "timeFromPrevSeconds": 114}, {"routeId": 8, "stopId": 80, "stopOrder": 4, "distanceFromPrevMeters": 377, "timeFromPrevSeconds": 75}, {"routeId": 8, "stopId": 79, "stopOrder": 5, "distanceFromPrevMeters": 128, "timeFromPrevSeconds": 60}, {"routeId": 8, "stopId": 218, "stopOrder": 6, "distanceFromPrevMeters": 178, "timeFromPrevSeconds": 60}, {"routeId": 8, "stopId": 124, "stopOrder": 7, "distanceFromPrevMeters": 273, "timeFromPrevSeconds": 60}, {"routeId": 8, "stopId": 219, "stopOrder": 8, "distanceFromPrevMeters": 266, "timeFromPrevSeconds": 60}, {"routeId": 8, "stopId": 220, "stopOrder": 9, "distanceFromPrevMeters": 31, "timeFromPrevSeconds": 60}, {"routeId": 8, "stopId": 221, "stopOrder": 10, "distanceFromPrevMeters": 207, "timeFromPrevSeconds": 60}, {"routeId": 8, "stopId": 32, "stopOrder": 11, "distanceFromPrevMeters": 95, "timeFromPrevSeconds": 60}, {"routeId": 8, "stopId": 363, "stopOrder": 12, "distanceFromPrevMeters": 141, "timeFromPrevSeconds": 60}, {"routeId": 8, "stopId": 121, "stopOrder": 13, "distanceFromPrevMeters": 1459, "timeFromPrevSeconds": 291}, {"routeId": 8, "stopId": 319, "stopOrder": 14, "distanceFromPrevMeters": 1409, "timeFromPrevSeconds": 281}, {"routeId": 9, "stopId": 188, "stopOrder": 0, "distanceFromPrevMeters": 0, "timeFromPrevSeconds": 0}, {"routeId": 9, "stopId": 18, "stopOrder": 1, "distanceFromPrevMeters": 2117, "timeFromPrevSeconds": 423}, {"routeId": 9, "stopId": 139, "stopOrder": 2, "distanceFromPrevMeters": 879, "timeFromPrevSeconds": 175}, {"routeId": 9, "stopId": 115, "stopOrder": 3, "distanceFromPrevMeters": 1006, "timeFromPrevSeconds": 201}, {"routeId": 9, "stopId": 379, "stopOrder": 4, "distanceFromPrevMeters": 2220, "timeFromPrevSeconds": 444}, {"routeId": 9, "stopId": 215, "stopOrder": 5, "distanceFromPrevMeters": 1861, "timeFromPrevSeconds": 372}, {"routeId": 9, "stopId": 336, "stopOrder": 6, "distanceFromPrevMeters": 270, "timeFromPrevSeconds": 60}, {"routeId": 9, "stopId": 116, "stopOrder": 7, "distanceFromPrevMeters": 572, "timeFromPrevSeconds": 114}, {"routeId": 9, "stopId": 235, "stopOrder": 8, "distanceFromPrevMeters": 247, "timeFromPrevSeconds": 60}, {"routeId": 9, "stopId": 127, "stopOrder": 9, "distanceFromPrevMeters": 1317, "timeFromPrevSeconds": 263}, {"routeId": 9, "stopId": 295, "stopOrder": 10, "distanceFromPrevMeters": 481, "timeFromPrevSeconds": 96}, {"routeId": 9, "stopId": 105, "stopOrder": 11, "distanceFromPrevMeters": 627, "timeFromPrevSeconds": 125}, {"routeId": 9, "stopId": 8, "stopOrder": 12, "distanceFromPrevMeters": 1713, "timeFromPrevSeconds": 342}, {"routeId": 9, "stopId": 174, "stopOrder": 13, "distanceFromPrevMeters": 496, "timeFromPrevSeconds": 99}, {"routeId": 9, "stopId": 197, "stopOrder": 14, "distanceFromPrevMeters": 507, "timeFromPrevSeconds": 101}, {"routeId": 10, "stopId": 279, "stopOrder": 0, "distanceFromPrevMeters": 0, "timeFromPrevSeconds": 0}, {"routeId": 10, "stopId": 39, "stopOrder": 1, "distanceFromPrevMeters": 820, "timeFromPrevSeconds": 164}, {"routeId": 10, "stopId": 302, "stopOrder": 2, "distanceFromPrevMeters": 1388, "timeFromPrevSeconds": 277}, {"routeId": 10, "stopId": 158, "stopOrder": 3, "distanceFromPrevMeters": 1110, "timeFromPrevSeconds": 222}, {"routeId": 10, "stopId": 70, "stopOrder": 4, "distanceFromPrevMeters": 1886, "timeFromPrevSeconds": 377}, {"routeId": 10, "stopId": 19, "stopOrder": 5, "distanceFromPrevMeters": 437, "timeFromPrevSeconds": 87}, {"routeId": 10, "stopId": 285, "stopOrder": 6, "distanceFromPrevMeters": 1319, "timeFromPrevSeconds": 263}, {"routeId": 10, "stopId": 68, "stopOrder": 7, "distanceFromPrevMeters": 572, "timeFromPrevSeconds": 114}, {"routeId": 10, "stopId": 176, "stopOrder": 8, "distanceFromPrevMeters": 1821, "timeFromPrevSeconds": 364}, {"routeId": 10, "stopId": 342, "stopOrder": 9, "distanceFromPrevMeters": 924, "timeFromPrevSeconds": 184}, {"routeId": 10, "stopId": 35, "stopOrder": 10, "distanceFromPrevMeters": 662, "timeFromPrevSeconds": 132}, {"routeId": 10, "stopId": 300, "stopOrder": 11, "distanceFromPrevMeters": 635, "timeFromPrevSeconds": 127}, {"routeId": 10, "stopId": 200, "stopOrder": 12, "distanceFromPrevMeters": 1177, "timeFromPrevSeconds": 235}, {"routeId": 11, "stopId": 254, "stopOrder": 0, "distanceFromPrevMeters": 0, "timeFromPrevSeconds": 0}, {"routeId": 11, "stopId": 110, "stopOrder": 1, "distanceFromPrevMeters": 1768, "timeFromPrevSeconds": 353}, {"routeId": 11, "stopId": 135, "stopOrder": 2, "distanceFromPrevMeters": 487, "timeFromPrevSeconds": 97}, {"routeId": 11, "stopId": 274, "stopOrder": 3, "distanceFromPrevMeters": 1080, "timeFromPrevSeconds": 216}, {"routeId": 11, "stopId": 208, "stopOrder": 4, "distanceFromPrevMeters": 2572, "timeFromPrevSeconds": 514}, {"routeId": 11, "stopId": 252, "stopOrder": 5, "distanceFromPrevMeters": 845, "timeFromPrevSeconds": 169}, {"routeId": 11, "stopId": 83, "stopOrder": 6, "distanceFromPrevMeters": 1400, "timeFromPrevSeconds": 280}, {"routeId": 11, "stopId": 58, "stopOrder": 7, "distanceFromPrevMeters": 1654, "timeFromPrevSeconds": 330}, {"routeId": 11, "stopId": 57, "stopOrder": 8, "distanceFromPrevMeters": 1089, "timeFromPrevSeconds": 217}, {"routeId": 11, "stopId": 210, "stopOrder": 9, "distanceFromPrevMeters": 1533, "timeFromPrevSeconds": 306}, {"routeId": 11, "stopId": 332, "stopOrder": 10, "distanceFromPrevMeters": 825, "timeFromPrevSeconds": 165}, {"routeId": 11, "stopId": 256, "stopOrder": 11, "distanceFromPrevMeters": 1445, "timeFromPrevSeconds": 289}, {"routeId": 11, "stopId": 65, "stopOrder": 12, "distanceFromPrevMeters": 1205, "timeFromPrevSeconds": 241}, {"routeId": 11, "stopId": 86, "stopOrder": 13, "distanceFromPrevMeters": 1153, "timeFromPrevSeconds": 230}, {"routeId": 12, "stopId": 121, "stopOrder": 0, "distanceFromPrevMeters": 0, "timeFromPrevSeconds": 0}, {"routeId": 12, "stopId": 220, "stopOrder": 1, "distanceFromPrevMeters": 1358, "timeFromPrevSeconds": 271}, {"routeId": 12, "stopId": 148, "stopOrder": 2, "distanceFromPrevMeters": 331, "timeFromPrevSeconds": 66}, {"routeId": 12, "stopId": 291, "stopOrder": 3, "distanceFromPrevMeters": 1137, "timeFromPrevSeconds": 227}, {"routeId": 12, "stopId": 246, "stopOrder": 4, "distanceFromPrevMeters": 1338, "timeFromPrevSeconds": 267}, {"routeId": 12, "stopId": 47, "stopOrder": 5, "distanceFromPrevMeters": 820, "timeFromPrevSeconds": 164}, {"routeId": 12, "stopId": 168, "stopOrder": 6, "distanceFromPrevMeters": 747, "timeFromPrevSeconds": 149}, {"routeId": 12, "stopId": 238, "stopOrder": 7, "distanceFromPrevMeters": 713, "timeFromPrevSeconds": 142}, {"routeId": 12, "stopId": 96, "stopOrder": 8, "distanceFromPrevMeters": 467, "timeFromPrevSeconds": 93}, {"routeId": 12, "stopId": 312, "stopOrder": 9, "distanceFromPrevMeters": 986, "timeFromPrevSeconds": 197}, {"routeId": 12, "stopId": 280, "stopOrder": 10, "distanceFromPrevMeters": 1567, "timeFromPrevSeconds": 313}, {"routeId": 12, "stopId": 138, "stopOrder": 11, "distanceFromPrevMeters": 856, "timeFromPrevSeconds": 171}, {"routeId": 12, "stopId": 207, "stopOrder": 12, "distanceFromPrevMeters": 1097, "timeFromPrevSeconds": 219}, {"routeId": 13, "stopId": 73, "stopOrder": 0, "distanceFromPrevMeters": 0, "timeFromPrevSeconds": 0}, {"routeId": 13, "stopId": 319, "stopOrder": 1, "distanceFromPrevMeters": 4293, "timeFromPrevSeconds": 858}, {"routeId": 13, "stopId": 247, "stopOrder": 2, "distanceFromPrevMeters": 1406, "timeFromPrevSeconds": 281}, {"routeId": 13, "stopId": 317, "stopOrder": 3, "distanceFromPrevMeters": 2429, "timeFromPrevSeconds": 485}, {"routeId": 13, "stopId": 189, "stopOrder": 4, "distanceFromPrevMeters": 1227, "timeFromPrevSeconds": 245}, {"routeId": 13, "stopId": 117, "stopOrder": 5, "distanceFromPrevMeters": 1452, "timeFromPrevSeconds": 290}, {"routeId": 13, "stopId": 288, "stopOrder": 6, "distanceFromPrevMeters": 477, "timeFromPrevSeconds": 95}, {"routeId": 13, "stopId": 287, "stopOrder": 7, "distanceFromPrevMeters": 1569, "timeFromPrevSeconds": 313}, {"routeId": 13, "stopId": 243, "stopOrder": 8, "distanceFromPrevMeters": 1425, "timeFromPrevSeconds": 285}, {"routeId": 13, "stopId": 74, "stopOrder": 9, "distanceFromPrevMeters": 239, "timeFromPrevSeconds": 60}, {"routeId": 13, "stopId": 193, "stopOrder": 10, "distanceFromPrevMeters": 861, "timeFromPrevSeconds": 172}, {"routeId": 13, "stopId": 101, "stopOrder": 11, "distanceFromPrevMeters": 950, "timeFromPrevSeconds": 190}, {"routeId": 13, "stopId": 337, "stopOrder": 12, "distanceFromPrevMeters": 613, "timeFromPrevSeconds": 122}, {"routeId": 14, "stopId": 378, "stopOrder": 0, "distanceFromPrevMeters": 0, "timeFromPrevSeconds": 0}, {"routeId": 14, "stopId": 139, "stopOrder": 1, "distanceFromPrevMeters": 1967, "timeFromPrevSeconds": 393}, {"routeId": 14, "stopId": 212, "stopOrder": 2, "distanceFromPrevMeters": 1084, "timeFromPrevSeconds": 216}, {"routeId": 14, "stopId": 303, "stopOrder": 3, "distanceFromPrevMeters": 1445, "timeFromPrevSeconds": 289}, {"routeId": 14, "stopId": 140, "stopOrder": 4, "distanceFromPrevMeters": 1048, "timeFromPrevSeconds": 209}, {"routeId": 14, "stopId": 275, "stopOrder": 5, "distanceFromPrevMeters": 485, "timeFromPrevSeconds": 97}, {"routeId": 14, "stopId": 109, "stopOrder": 6, "distanceFromPrevMeters": 280, "timeFromPrevSeconds": 60}, {"routeId": 14, "stopId": 229, "stopOrder": 7, "distanceFromPrevMeters": 675, "timeFromPrevSeconds": 135}, {"routeId": 14, "stopId": 15, "stopOrder": 8, "distanceFromPrevMeters": 608, "timeFromPrevSeconds": 121}, {"routeId": 14, "stopId": 85, "stopOrder": 9, "distanceFromPrevMeters": 1526, "timeFromPrevSeconds": 305}, {"routeId": 14, "stopId": 301, "stopOrder": 10, "distanceFromPrevMeters": 1030, "timeFromPrevSeconds": 206}, {"routeId": 14, "stopId": 111, "stopOrder": 11, "distanceFromPrevMeters": 531, "timeFromPrevSeconds": 106}, {"routeId": 14, "stopId": 203, "stopOrder": 12, "distanceFromPrevMeters": 1325, "timeFromPrevSeconds": 265}, {"routeId": 15, "stopId": 164, "stopOrder": 0, "distanceFromPrevMeters": 0, "timeFromPrevSeconds": 0}, {"routeId": 15, "stopId": 379, "stopOrder": 1, "distanceFromPrevMeters": 2846, "timeFromPrevSeconds": 569}, {"routeId": 15, "stopId": 354, "stopOrder": 2, "distanceFromPrevMeters": 1639, "timeFromPrevSeconds": 327}, {"routeId": 15, "stopId": 215, "stopOrder": 3, "distanceFromPrevMeters": 511, "timeFromPrevSeconds": 102}, {"routeId": 15, "stopId": 91, "stopOrder": 4, "distanceFromPrevMeters": 1292, "timeFromPrevSeconds": 258}, {"routeId": 15, "stopId": 356, "stopOrder": 5, "distanceFromPrevMeters": 2159, "timeFromPrevSeconds": 431}, {"routeId": 15, "stopId": 309, "stopOrder": 6, "distanceFromPrevMeters": 1787, "timeFromPrevSeconds": 357}, {"routeId": 15, "stopId": 324, "stopOrder": 7, "distanceFromPrevMeters": 2214, "timeFromPrevSeconds": 442}, {"routeId": 15, "stopId": 208, "stopOrder": 8, "distanceFromPrevMeters": 925, "timeFromPrevSeconds": 185}, {"routeId": 15, "stopId": 77, "stopOrder": 9, "distanceFromPrevMeters": 1670, "timeFromPrevSeconds": 334}, {"routeId": 15, "stopId": 245, "stopOrder": 10, "distanceFromPrevMeters": 598, "timeFromPrevSeconds": 119}, {"routeId": 15, "stopId": 148, "stopOrder": 11, "distanceFromPrevMeters": 665, "timeFromPrevSeconds": 133}, {"routeId": 15, "stopId": 121, "stopOrder": 12, "distanceFromPrevMeters": 1678, "timeFromPrevSeconds": 335}, {"routeId": 15, "stopId": 319, "stopOrder": 13, "distanceFromPrevMeters": 1409, "timeFromPrevSeconds": 281}, {"routeId": 15, "stopId": 247, "stopOrder": 14, "distanceFromPrevMeters": 1406, "timeFromPrevSeconds": 281}, {"routeId": 16, "stopId": 343, "stopOrder": 0, "distanceFromPrevMeters": 0, "timeFromPrevSeconds": 0}, {"routeId": 16, "stopId": 199, "stopOrder": 1, "distanceFromPrevMeters": 1498, "timeFromPrevSeconds": 299}, {"routeId": 16, "stopId": 55, "stopOrder": 2, "distanceFromPrevMeters": 1360, "timeFromPrevSeconds": 272}, {"routeId": 16, "stopId": 249, "stopOrder": 3, "distanceFromPrevMeters": 926, "timeFromPrevSeconds": 185}, {"routeId": 16, "stopId": 346, "stopOrder": 4, "distanceFromPrevMeters": 884, "timeFromPrevSeconds": 176}, {"routeId": 16, "stopId": 60, "stopOrder": 5, "distanceFromPrevMeters": 952, "timeFromPrevSeconds": 190}, {"routeId": 16, "stopId": 321, "stopOrder": 6, "distanceFromPrevMeters": 862, "timeFromPrevSeconds": 172}, {"routeId": 16, "stopId": 154, "stopOrder": 7, "distanceFromPrevMeters": 895, "timeFromPrevSeconds": 179}, {"routeId": 16, "stopId": 246, "stopOrder": 8, "distanceFromPrevMeters": 1451, "timeFromPrevSeconds": 290}, {"routeId": 16, "stopId": 192, "stopOrder": 9, "distanceFromPrevMeters": 1366, "timeFromPrevSeconds": 273}, {"routeId": 16, "stopId": 126, "stopOrder": 10, "distanceFromPrevMeters": 990, "timeFromPrevSeconds": 198}, {"routeId": 16, "stopId": 292, "stopOrder": 11, "distanceFromPrevMeters": 462, "timeFromPrevSeconds": 92}, {"routeId": 16, "stopId": 170, "stopOrder": 12, "distanceFromPrevMeters": 1046, "timeFromPrevSeconds": 209}, {"routeId": 17, "stopId": 352, "stopOrder": 0, "distanceFromPrevMeters": 0, "timeFromPrevSeconds": 0}, {"routeId": 17, "stopId": 54, "stopOrder": 1, "distanceFromPrevMeters": 5185, "timeFromPrevSeconds": 1037}, {"routeId": 17, "stopId": 200, "stopOrder": 2, "distanceFromPrevMeters": 3612, "timeFromPrevSeconds": 722}, {"routeId": 17, "stopId": 258, "stopOrder": 3, "distanceFromPrevMeters": 2126, "timeFromPrevSeconds": 425}, {"routeId": 17, "stopId": 332, "stopOrder": 4, "distanceFromPrevMeters": 972, "timeFromPrevSeconds": 194}, {"routeId": 17, "stopId": 367, "stopOrder": 5, "distanceFromPrevMeters": 1356, "timeFromPrevSeconds": 271}, {"routeId": 17, "stopId": 237, "stopOrder": 6, "distanceFromPrevMeters": 1652, "timeFromPrevSeconds": 330}, {"routeId": 17, "stopId": 166, "stopOrder": 7, "distanceFromPrevMeters": 901, "timeFromPrevSeconds": 180}, {"routeId": 17, "stopId": 383, "stopOrder": 8, "distanceFromPrevMeters": 150, "timeFromPrevSeconds": 60}, {"routeId": 17, "stopId": 357, "stopOrder": 9, "distanceFromPrevMeters": 354, "timeFromPrevSeconds": 70}, {"routeId": 17, "stopId": 117, "stopOrder": 10, "distanceFromPrevMeters": 581, "timeFromPrevSeconds": 116}, {"routeId": 17, "stopId": 217, "stopOrder": 11, "distanceFromPrevMeters": 1760, "timeFromPrevSeconds": 352}, {"routeId": 17, "stopId": 287, "stopOrder": 12, "distanceFromPrevMeters": 1077, "timeFromPrevSeconds": 215}, {"routeId": 18, "stopId": 184, "stopOrder": 0, "distanceFromPrevMeters": 0, "timeFromPrevSeconds": 0}, {"routeId": 18, "stopId": 66, "stopOrder": 1, "distanceFromPrevMeters": 758, "timeFromPrevSeconds": 151}, {"routeId": 18, "stopId": 329, "stopOrder": 2, "distanceFromPrevMeters": 613, "timeFromPrevSeconds": 122}, {"routeId": 18, "stopId": 160, "stopOrder": 3, "distanceFromPrevMeters": 685, "timeFromPrevSeconds": 137}, {"routeId": 18, "stopId": 207, "stopOrder": 4, "distanceFromPrevMeters": 638, "timeFromPrevSeconds": 127}, {"routeId": 18, "stopId": 276, "stopOrder": 5, "distanceFromPrevMeters": 458, "timeFromPrevSeconds": 91}, {"routeId": 18, "stopId": 159, "stopOrder": 6, "distanceFromPrevMeters": 500, "timeFromPrevSeconds": 100}, {"routeId": 18, "stopId": 183, "stopOrder": 7, "distanceFromPrevMeters": 683, "timeFromPrevSeconds": 136}, {"routeId": 18, "stopId": 241, "stopOrder": 8, "distanceFromPrevMeters": 993, "timeFromPrevSeconds": 198}, {"routeId": 18, "stopId": 28, "stopOrder": 9, "distanceFromPrevMeters": 510, "timeFromPrevSeconds": 102}, {"routeId": 18, "stopId": 98, "stopOrder": 10, "distanceFromPrevMeters": 500, "timeFromPrevSeconds": 100}, {"routeId": 18, "stopId": 50, "stopOrder": 11, "distanceFromPrevMeters": 489, "timeFromPrevSeconds": 97}, {"routeId": 18, "stopId": 193, "stopOrder": 12, "distanceFromPrevMeters": 604, "timeFromPrevSeconds": 120}, {"routeId": 19, "stopId": 73, "stopOrder": 0, "distanceFromPrevMeters": 0, "timeFromPrevSeconds": 0}, {"routeId": 19, "stopId": 97, "stopOrder": 1, "distanceFromPrevMeters": 3186, "timeFromPrevSeconds": 637}, {"routeId": 19, "stopId": 1, "stopOrder": 2, "distanceFromPrevMeters": 235, "timeFromPrevSeconds": 60}, {"routeId": 19, "stopId": 121, "stopOrder": 3, "distanceFromPrevMeters": 1042, "timeFromPrevSeconds": 208}, {"routeId": 20, "stopId": 26, "stopOrder": 0, "distanceFromPrevMeters": 0, "timeFromPrevSeconds": 0}, {"routeId": 20, "stopId": 241, "stopOrder": 1, "distanceFromPrevMeters": 131, "timeFromPrevSeconds": 60}, {"routeId": 20, "stopId": 217, "stopOrder": 2, "distanceFromPrevMeters": 1080, "timeFromPrevSeconds": 216}, {"routeId": 20, "stopId": 243, "stopOrder": 3, "distanceFromPrevMeters": 850, "timeFromPrevSeconds": 170}, {"routeId": 20, "stopId": 75, "stopOrder": 4, "distanceFromPrevMeters": 233, "timeFromPrevSeconds": 60}, {"routeId": 20, "stopId": 50, "stopOrder": 5, "distanceFromPrevMeters": 281, "timeFromPrevSeconds": 60}, {"routeId": 20, "stopId": 193, "stopOrder": 6, "distanceFromPrevMeters": 604, "timeFromPrevSeconds": 120}, {"routeId": 20, "stopId": 99, "stopOrder": 7, "distanceFromPrevMeters": 364, "timeFromPrevSeconds": 72}, {"routeId": 20, "stopId": 337, "stopOrder": 8, "distanceFromPrevMeters": 494, "timeFromPrevSeconds": 98}, {"routeId": 20, "stopId": 25, "stopOrder": 9, "distanceFromPrevMeters": 358, "timeFromPrevSeconds": 71}, {"routeId": 20, "stopId": 101, "stopOrder": 10, "distanceFromPrevMeters": 400, "timeFromPrevSeconds": 80}, {"routeId": 20, "stopId": 146, "stopOrder": 11, "distanceFromPrevMeters": 503, "timeFromPrevSeconds": 100}, {"routeId": 21, "stopId": 77, "stopOrder": 0, "distanceFromPrevMeters": 0, "timeFromPrevSeconds": 0}, {"routeId": 21, "stopId": 290, "stopOrder": 1, "distanceFromPrevMeters": 1243, "timeFromPrevSeconds": 248}, {"routeId": 21, "stopId": 149, "stopOrder": 2, "distanceFromPrevMeters": 1589, "timeFromPrevSeconds": 317}, {"routeId": 21, "stopId": 219, "stopOrder": 3, "distanceFromPrevMeters": 403, "timeFromPrevSeconds": 80}, {"routeId": 21, "stopId": 362, "stopOrder": 4, "distanceFromPrevMeters": 538, "timeFromPrevSeconds": 107}, {"routeId": 21, "stopId": 52, "stopOrder": 5, "distanceFromPrevMeters": 403, "timeFromPrevSeconds": 80}, {"routeId": 21, "stopId": 317, "stopOrder": 6, "distanceFromPrevMeters": 1869, "timeFromPrevSeconds": 373}, {"routeId": 21, "stopId": 194, "stopOrder": 7, "distanceFromPrevMeters": 752, "timeFromPrevSeconds": 150}, {"routeId": 21, "stopId": 102, "stopOrder": 8, "distanceFromPrevMeters": 1009, "timeFromPrevSeconds": 201}, {"routeId": 21, "stopId": 30, "stopOrder": 9, "distanceFromPrevMeters": 828, "timeFromPrevSeconds": 165}, {"routeId": 21, "stopId": 318, "stopOrder": 10, "distanceFromPrevMeters": 290, "timeFromPrevSeconds": 60}, {"routeId": 22, "stopId": 319, "stopOrder": 0, "distanceFromPrevMeters": 0, "timeFromPrevSeconds": 0}, {"routeId": 22, "stopId": 294, "stopOrder": 1, "distanceFromPrevMeters": 639, "timeFromPrevSeconds": 127}, {"routeId": 22, "stopId": 267, "stopOrder": 2, "distanceFromPrevMeters": 277, "timeFromPrevSeconds": 60}, {"routeId": 22, "stopId": 173, "stopOrder": 3, "distanceFromPrevMeters": 518, "timeFromPrevSeconds": 103}, {"routeId": 22, "stopId": 340, "stopOrder": 4, "distanceFromPrevMeters": 319, "timeFromPrevSeconds": 63}, {"routeId": 22, "stopId": 247, "stopOrder": 5, "distanceFromPrevMeters": 799, "timeFromPrevSeconds": 159}, {"routeId": 22, "stopId": 104, "stopOrder": 6, "distanceFromPrevMeters": 609, "timeFromPrevSeconds": 121}, {"routeId": 23, "stopId": 105, "stopOrder": 0, "distanceFromPrevMeters": 0, "timeFromPrevSeconds": 0}, {"routeId": 23, "stopId": 295, "stopOrder": 1, "distanceFromPrevMeters": 627, "timeFromPrevSeconds": 125}, {"routeId": 23, "stopId": 365, "stopOrder": 2, "distanceFromPrevMeters": 816, "timeFromPrevSeconds": 163}, {"routeId": 23, "stopId": 248, "stopOrder": 3, "distanceFromPrevMeters": 812, "timeFromPrevSeconds": 162}, {"routeId": 23, "stopId": 342, "stopOrder": 4, "distanceFromPrevMeters": 538, "timeFromPrevSeconds": 107}, {"routeId": 23, "stopId": 249, "stopOrder": 5, "distanceFromPrevMeters": 697, "timeFromPrevSeconds": 139}, {"routeId": 23, "stopId": 175, "stopOrder": 6, "distanceFromPrevMeters": 751, "timeFromPrevSeconds": 150}, {"routeId": 23, "stopId": 268, "stopOrder": 7, "distanceFromPrevMeters": 450, "timeFromPrevSeconds": 90}, {"routeId": 23, "stopId": 223, "stopOrder": 8, "distanceFromPrevMeters": 1106, "timeFromPrevSeconds": 221}, {"routeId": 23, "stopId": 197, "stopOrder": 9, "distanceFromPrevMeters": 468, "timeFromPrevSeconds": 93}, {"routeId": 23, "stopId": 151, "stopOrder": 10, "distanceFromPrevMeters": 947, "timeFromPrevSeconds": 189}, {"routeId": 23, "stopId": 343, "stopOrder": 11, "distanceFromPrevMeters": 394, "timeFromPrevSeconds": 78}, {"routeId": 24, "stopId": 36, "stopOrder": 0, "distanceFromPrevMeters": 0, "timeFromPrevSeconds": 0}, {"routeId": 24, "stopId": 38, "stopOrder": 1, "distanceFromPrevMeters": 272, "timeFromPrevSeconds": 60}, {"routeId": 24, "stopId": 299, "stopOrder": 2, "distanceFromPrevMeters": 693, "timeFromPrevSeconds": 138}, {"routeId": 24, "stopId": 271, "stopOrder": 3, "distanceFromPrevMeters": 1375, "timeFromPrevSeconds": 275}, {"routeId": 24, "stopId": 12, "stopOrder": 4, "distanceFromPrevMeters": 455, "timeFromPrevSeconds": 91}, {"routeId": 24, "stopId": 224, "stopOrder": 5, "distanceFromPrevMeters": 872, "timeFromPrevSeconds": 174}, {"routeId": 24, "stopId": 128, "stopOrder": 6, "distanceFromPrevMeters": 2029, "timeFromPrevSeconds": 405}, {"routeId": 24, "stopId": 345, "stopOrder": 7, "distanceFromPrevMeters": 1624, "timeFromPrevSeconds": 324}, {"routeId": 24, "stopId": 13, "stopOrder": 8, "distanceFromPrevMeters": 776, "timeFromPrevSeconds": 155}, {"routeId": 24, "stopId": 129, "stopOrder": 9, "distanceFromPrevMeters": 257, "timeFromPrevSeconds": 60}, {"routeId": 24, "stopId": 226, "stopOrder": 10, "distanceFromPrevMeters": 688, "timeFromPrevSeconds": 137}, {"routeId": 24, "stopId": 347, "stopOrder": 11, "distanceFromPrevMeters": 595, "timeFromPrevSeconds": 119}, {"routeId": 25, "stopId": 134, "stopOrder": 0, "distanceFromPrevMeters": 0, "timeFromPrevSeconds": 0}, {"routeId": 25, "stopId": 109, "stopOrder": 1, "distanceFromPrevMeters": 1238, "timeFromPrevSeconds": 247}, {"routeId": 25, "stopId": 228, "stopOrder": 2, "distanceFromPrevMeters": 709, "timeFromPrevSeconds": 141}, {"routeId": 25, "stopId": 254, "stopOrder": 3, "distanceFromPrevMeters": 2489, "timeFromPrevSeconds": 497}, {"routeId": 25, "stopId": 301, "stopOrder": 4, "distanceFromPrevMeters": 2137, "timeFromPrevSeconds": 427}, {"routeId": 25, "stopId": 132, "stopOrder": 5, "distanceFromPrevMeters": 377, "timeFromPrevSeconds": 75}, {"routeId": 25, "stopId": 203, "stopOrder": 6, "distanceFromPrevMeters": 1308, "timeFromPrevSeconds": 261}, {"routeId": 25, "stopId": 274, "stopOrder": 7, "distanceFromPrevMeters": 613, "timeFromPrevSeconds": 122}, {"routeId": 25, "stopId": 84, "stopOrder": 8, "distanceFromPrevMeters": 543, "timeFromPrevSeconds": 108}, {"routeId": 25, "stopId": 157, "stopOrder": 9, "distanceFromPrevMeters": 1116, "timeFromPrevSeconds": 223}, {"routeId": 25, "stopId": 112, "stopOrder": 10, "distanceFromPrevMeters": 620, "timeFromPrevSeconds": 124}, {"routeId": 25, "stopId": 303, "stopOrder": 11, "distanceFromPrevMeters": 1184, "timeFromPrevSeconds": 236}, {"routeId": 26, "stopId": 67, "stopOrder": 0, "distanceFromPrevMeters": 0, "timeFromPrevSeconds": 0}, {"routeId": 26, "stopId": 136, "stopOrder": 1, "distanceFromPrevMeters": 963, "timeFromPrevSeconds": 192}, {"routeId": 26, "stopId": 280, "stopOrder": 2, "distanceFromPrevMeters": 1035, "timeFromPrevSeconds": 207}, {"routeId": 26, "stopId": 40, "stopOrder": 3, "distanceFromPrevMeters": 440, "timeFromPrevSeconds": 88}, {"routeId": 26, "stopId": 159, "stopOrder": 4, "distanceFromPrevMeters": 910, "timeFromPrevSeconds": 182}, {"routeId": 26, "stopId": 183, "stopOrder": 5, "distanceFromPrevMeters": 683, "timeFromPrevSeconds": 136}, {"routeId": 26, "stopId": 350, "stopOrder": 6, "distanceFromPrevMeters": 491, "timeFromPrevSeconds": 98}, {"routeId": 26, "stopId": 16, "stopOrder": 7, "distanceFromPrevMeters": 1933, "timeFromPrevSeconds": 386}, {"routeId": 26, "stopId": 255, "stopOrder": 8, "distanceFromPrevMeters": 307, "timeFromPrevSeconds": 61}, {"routeId": 26, "stopId": 205, "stopOrder": 9, "distanceFromPrevMeters": 773, "timeFromPrevSeconds": 154}, {"routeId": 26, "stopId": 329, "stopOrder": 10, "distanceFromPrevMeters": 285, "timeFromPrevSeconds": 60}, {"routeId": 26, "stopId": 185, "stopOrder": 11, "distanceFromPrevMeters": 1075, "timeFromPrevSeconds": 215}, {"routeId": 27, "stopId": 87, "stopOrder": 0, "distanceFromPrevMeters": 0, "timeFromPrevSeconds": 0}, {"routeId": 27, "stopId": 88, "stopOrder": 1, "distanceFromPrevMeters": 20, "timeFromPrevSeconds": 60}, {"routeId": 27, "stopId": 307, "stopOrder": 2, "distanceFromPrevMeters": 284, "timeFromPrevSeconds": 60}, {"routeId": 27, "stopId": 333, "stopOrder": 3, "distanceFromPrevMeters": 690, "timeFromPrevSeconds": 138}, {"routeId": 27, "stopId": 281, "stopOrder": 4, "distanceFromPrevMeters": 1368, "timeFromPrevSeconds": 273}, {"routeId": 27, "stopId": 209, "stopOrder": 5, "distanceFromPrevMeters": 359, "timeFromPrevSeconds": 71}, {"routeId": 27, "stopId": 210, "stopOrder": 6, "distanceFromPrevMeters": 616, "timeFromPrevSeconds": 123}, {"routeId": 27, "stopId": 211, "stopOrder": 7, "distanceFromPrevMeters": 684, "timeFromPrevSeconds": 136}, {"routeId": 27, "stopId": 186, "stopOrder": 8, "distanceFromPrevMeters": 430, "timeFromPrevSeconds": 86}, {"routeId": 27, "stopId": 42, "stopOrder": 9, "distanceFromPrevMeters": 798, "timeFromPrevSeconds": 159}, {"routeId": 27, "stopId": 332, "stopOrder": 10, "distanceFromPrevMeters": 428, "timeFromPrevSeconds": 85}, {"routeId": 27, "stopId": 258, "stopOrder": 11, "distanceFromPrevMeters": 972, "timeFromPrevSeconds": 194}, {"routeId": 28, "stopId": 282, "stopOrder": 0, "distanceFromPrevMeters": 0, "timeFromPrevSeconds": 0}, {"routeId": 28, "stopId": 352, "stopOrder": 1, "distanceFromPrevMeters": 301, "timeFromPrevSeconds": 60}, {"routeId": 28, "stopId": 54, "stopOrder": 2, "distanceFromPrevMeters": 5185, "timeFromPrevSeconds": 1037}, {"routeId": 28, "stopId": 375, "stopOrder": 3, "distanceFromPrevMeters": 3943, "timeFromPrevSeconds": 788}, {"routeId": 28, "stopId": 308, "stopOrder": 4, "distanceFromPrevMeters": 285, "timeFromPrevSeconds": 60}, {"routeId": 28, "stopId": 89, "stopOrder": 5, "distanceFromPrevMeters": 750, "timeFromPrevSeconds": 150}, {"routeId": 28, "stopId": 114, "stopOrder": 6, "distanceFromPrevMeters": 314, "timeFromPrevSeconds": 62}, {"routeId": 29, "stopId": 69, "stopOrder": 0, "distanceFromPrevMeters": 0, "timeFromPrevSeconds": 0}, {"routeId": 29, "stopId": 18, "stopOrder": 1, "distanceFromPrevMeters": 2625, "timeFromPrevSeconds": 525}, {"routeId": 29, "stopId": 188, "stopOrder": 2, "distanceFromPrevMeters": 2117, "timeFromPrevSeconds": 423}, {"routeId": 29, "stopId": 115, "stopOrder": 3, "distanceFromPrevMeters": 2886, "timeFromPrevSeconds": 577}, {"routeId": 29, "stopId": 70, "stopOrder": 4, "distanceFromPrevMeters": 785, "timeFromPrevSeconds": 157}, {"routeId": 29, "stopId": 19, "stopOrder": 5, "distanceFromPrevMeters": 437, "timeFromPrevSeconds": 87}, {"routeId": 29, "stopId": 311, "stopOrder": 6, "distanceFromPrevMeters": 1792, "timeFromPrevSeconds": 358}, {"routeId": 29, "stopId": 46, "stopOrder": 7, "distanceFromPrevMeters": 512, "timeFromPrevSeconds": 102}, {"routeId": 29, "stopId": 235, "stopOrder": 8, "distanceFromPrevMeters": 504, "timeFromPrevSeconds": 100}, {"routeId": 29, "stopId": 260, "stopOrder": 9, "distanceFromPrevMeters": 1333, "timeFromPrevSeconds": 266}, {"routeId": 30, "stopId": 166, "stopOrder": 0, "distanceFromPrevMeters": 0, "timeFromPrevSeconds": 0}, {"routeId": 30, "stopId": 238, "stopOrder": 1, "distanceFromPrevMeters": 384, "timeFromPrevSeconds": 76}, {"routeId": 30, "stopId": 262, "stopOrder": 2, "distanceFromPrevMeters": 1469, "timeFromPrevSeconds": 293}, {"routeId": 30, "stopId": 168, "stopOrder": 3, "distanceFromPrevMeters": 1552, "timeFromPrevSeconds": 310}, {"routeId": 30, "stopId": 94, "stopOrder": 4, "distanceFromPrevMeters": 617, "timeFromPrevSeconds": 123}, {"routeId": 30, "stopId": 120, "stopOrder": 5, "distanceFromPrevMeters": 451, "timeFromPrevSeconds": 90}, {"routeId": 30, "stopId": 380, "stopOrder": 6, "distanceFromPrevMeters": 1639, "timeFromPrevSeconds": 327}, {"routeId": 30, "stopId": 287, "stopOrder": 7, "distanceFromPrevMeters": 1017, "timeFromPrevSeconds": 203}, {"routeId": 30, "stopId": 143, "stopOrder": 8, "distanceFromPrevMeters": 1866, "timeFromPrevSeconds": 373}, {"routeId": 30, "stopId": 264, "stopOrder": 9, "distanceFromPrevMeters": 985, "timeFromPrevSeconds": 197}, {"routeId": 30, "stopId": 23, "stopOrder": 10, "distanceFromPrevMeters": 696, "timeFromPrevSeconds": 139}, {"routeId": 30, "stopId": 48, "stopOrder": 11, "distanceFromPrevMeters": 370, "timeFromPrevSeconds": 74}, {"routeId": 31, "stopId": 385, "stopOrder": 0, "distanceFromPrevMeters": 0, "timeFromPrevSeconds": 0}, {"routeId": 31, "stopId": 386, "stopOrder": 1, "distanceFromPrevMeters": 1498, "timeFromPrevSeconds": 299}, {"routeId": 31, "stopId": 387, "stopOrder": 2, "distanceFromPrevMeters": 1183, "timeFromPrevSeconds": 236}, {"routeId": 31, "stopId": 388, "stopOrder": 3, "distanceFromPrevMeters": 1396, "timeFromPrevSeconds": 279}, {"routeId": 31, "stopId": 389, "stopOrder": 4, "distanceFromPrevMeters": 1134, "timeFromPrevSeconds": 226}, {"routeId": 31, "stopId": 390, "stopOrder": 5, "distanceFromPrevMeters": 785, "timeFromPrevSeconds": 157}, {"routeId": 31, "stopId": 392, "stopOrder": 6, "distanceFromPrevMeters": 1884, "timeFromPrevSeconds": 376}, {"routeId": 31, "stopId": 394, "stopOrder": 7, "distanceFromPrevMeters": 2055, "timeFromPrevSeconds": 411}, {"routeId": 31, "stopId": 393, "stopOrder": 8, "distanceFromPrevMeters": 613, "timeFromPrevSeconds": 122}, {"routeId": 31, "stopId": 391, "stopOrder": 9, "distanceFromPrevMeters": 1232, "timeFromPrevSeconds": 246}, {"routeId": 32, "stopId": 69, "stopOrder": 0, "distanceFromPrevMeters": 0, "timeFromPrevSeconds": 0}, {"routeId": 32, "stopId": 334, "stopOrder": 1, "distanceFromPrevMeters": 698, "timeFromPrevSeconds": 139}, {"routeId": 32, "stopId": 335, "stopOrder": 2, "distanceFromPrevMeters": 1004, "timeFromPrevSeconds": 200}, {"routeId": 32, "stopId": 234, "stopOrder": 3, "distanceFromPrevMeters": 1603, "timeFromPrevSeconds": 320}, {"routeId": 32, "stopId": 353, "stopOrder": 4, "distanceFromPrevMeters": 2738, "timeFromPrevSeconds": 547}, {"routeId": 32, "stopId": 165, "stopOrder": 5, "distanceFromPrevMeters": 688, "timeFromPrevSeconds": 137}, {"routeId": 32, "stopId": 259, "stopOrder": 6, "distanceFromPrevMeters": 1291, "timeFromPrevSeconds": 258}, {"routeId": 33, "stopId": 116, "stopOrder": 0, "distanceFromPrevMeters": 0, "timeFromPrevSeconds": 0}, {"routeId": 33, "stopId": 377, "stopOrder": 1, "distanceFromPrevMeters": 520, "timeFromPrevSeconds": 104}, {"routeId": 33, "stopId": 296, "stopOrder": 2, "distanceFromPrevMeters": 3097, "timeFromPrevSeconds": 619}, {"routeId": 33, "stopId": 198, "stopOrder": 3, "distanceFromPrevMeters": 459, "timeFromPrevSeconds": 91}, {"routeId": 33, "stopId": 56, "stopOrder": 4, "distanceFromPrevMeters": 276, "timeFromPrevSeconds": 60}, {"routeId": 33, "stopId": 250, "stopOrder": 5, "distanceFromPrevMeters": 84, "timeFromPrevSeconds": 60}, {"routeId": 33, "stopId": 222, "stopOrder": 6, "distanceFromPrevMeters": 228, "timeFromPrevSeconds": 60}, {"routeId": 34, "stopId": 296, "stopOrder": 0, "distanceFromPrevMeters": 0, "timeFromPrevSeconds": 0}, {"routeId": 34, "stopId": 344, "stopOrder": 1, "distanceFromPrevMeters": 141, "timeFromPrevSeconds": 60}, {"routeId": 34, "stopId": 284, "stopOrder": 2, "distanceFromPrevMeters": 6120, "timeFromPrevSeconds": 1224}, {"routeId": 34, "stopId": 106, "stopOrder": 3, "distanceFromPrevMeters": 5048, "timeFromPrevSeconds": 1009}, {"routeId": 34, "stopId": 92, "stopOrder": 4, "distanceFromPrevMeters": 2756, "timeFromPrevSeconds": 551}, {"routeId": 34, "stopId": 214, "stopOrder": 5, "distanceFromPrevMeters": 216, "timeFromPrevSeconds": 60}, {"routeId": 34, "stopId": 310, "stopOrder": 6, "distanceFromPrevMeters": 2547, "timeFromPrevSeconds": 509}, {"routeId": 35, "stopId": 235, "stopOrder": 0, "distanceFromPrevMeters": 0, "timeFromPrevSeconds": 0}, {"routeId": 35, "stopId": 90, "stopOrder": 1, "distanceFromPrevMeters": 66, "timeFromPrevSeconds": 60}, {"routeId": 35, "stopId": 162, "stopOrder": 2, "distanceFromPrevMeters": 3834, "timeFromPrevSeconds": 766}, {"routeId": 35, "stopId": 269, "stopOrder": 3, "distanceFromPrevMeters": 4871, "timeFromPrevSeconds": 974}, {"routeId": 35, "stopId": 81, "stopOrder": 4, "distanceFromPrevMeters": 755, "timeFromPrevSeconds": 151}, {"routeId": 35, "stopId": 236, "stopOrder": 5, "distanceFromPrevMeters": 2964, "timeFromPrevSeconds": 592}, {"routeId": 35, "stopId": 286, "stopOrder": 6, "distanceFromPrevMeters": 1054, "timeFromPrevSeconds": 210}, {"routeId": 36, "stopId": 19, "stopOrder": 0, "distanceFromPrevMeters": 0, "timeFromPrevSeconds": 0}, {"routeId": 36, "stopId": 20, "stopOrder": 1, "distanceFromPrevMeters": 47, "timeFromPrevSeconds": 60}, {"routeId": 36, "stopId": 44, "stopOrder": 2, "distanceFromPrevMeters": 217, "timeFromPrevSeconds": 60}, {"routeId": 36, "stopId": 320, "stopOrder": 3, "distanceFromPrevMeters": 3765, "timeFromPrevSeconds": 753}, {"routeId": 36, "stopId": 7, "stopOrder": 4, "distanceFromPrevMeters": 1033, "timeFromPrevSeconds": 206}, {"routeId": 36, "stopId": 43, "stopOrder": 5, "distanceFromPrevMeters": 783, "timeFromPrevSeconds": 156}, {"routeId": 36, "stopId": 62, "stopOrder": 6, "distanceFromPrevMeters": 3432, "timeFromPrevSeconds": 686}, {"routeId": 37, "stopId": 62, "stopOrder": 0, "distanceFromPrevMeters": 0, "timeFromPrevSeconds": 0}, {"routeId": 37, "stopId": 253, "stopOrder": 1, "distanceFromPrevMeters": 342, "timeFromPrevSeconds": 68}, {"routeId": 37, "stopId": 341, "stopOrder": 2, "distanceFromPrevMeters": 4003, "timeFromPrevSeconds": 800}, {"routeId": 37, "stopId": 326, "stopOrder": 3, "distanceFromPrevMeters": 3846, "timeFromPrevSeconds": 769}, {"routeId": 37, "stopId": 152, "stopOrder": 4, "distanceFromPrevMeters": 5708, "timeFromPrevSeconds": 1141}, {"routeId": 37, "stopId": 34, "stopOrder": 5, "distanceFromPrevMeters": 496, "timeFromPrevSeconds": 99}, {"routeId": 37, "stopId": 107, "stopOrder": 6, "distanceFromPrevMeters": 1006, "timeFromPrevSeconds": 201}, {"routeId": 38, "stopId": 36, "stopOrder": 0, "distanceFromPrevMeters": 0, "timeFromPrevSeconds": 0}, {"routeId": 38, "stopId": 366, "stopOrder": 1, "distanceFromPrevMeters": 84, "timeFromPrevSeconds": 60}, {"routeId": 38, "stopId": 179, "stopOrder": 2, "distanceFromPrevMeters": 4475, "timeFromPrevSeconds": 895}, {"routeId": 38, "stopId": 368, "stopOrder": 3, "distanceFromPrevMeters": 1751, "timeFromPrevSeconds": 350}, {"routeId": 38, "stopId": 348, "stopOrder": 4, "distanceFromPrevMeters": 3625, "timeFromPrevSeconds": 725}, {"routeId": 38, "stopId": 177, "stopOrder": 5, "distanceFromPrevMeters": 2033, "timeFromPrevSeconds": 406}, {"routeId": 38, "stopId": 272, "stopOrder": 6, "distanceFromPrevMeters": 1330, "timeFromPrevSeconds": 266}, {"routeId": 39, "stopId": 347, "stopOrder": 0, "distanceFromPrevMeters": 0, "timeFromPrevSeconds": 0}, {"routeId": 39, "stopId": 178, "stopOrder": 1, "distanceFromPrevMeters": 253, "timeFromPrevSeconds": 60}, {"routeId": 39, "stopId": 349, "stopOrder": 2, "distanceFromPrevMeters": 4778, "timeFromPrevSeconds": 955}, {"routeId": 39, "stopId": 113, "stopOrder": 3, "distanceFromPrevMeters": 8621, "timeFromPrevSeconds": 1724}, {"routeId": 39, "stopId": 181, "stopOrder": 4, "distanceFromPrevMeters": 10281, "timeFromPrevSeconds": 2056}, {"routeId": 39, "stopId": 201, "stopOrder": 5, "distanceFromPrevMeters": 6669, "timeFromPrevSeconds": 1333}, {"routeId": 39, "stopId": 156, "stopOrder": 6, "distanceFromPrevMeters": 5948, "timeFromPrevSeconds": 1189}, {"routeId": 40, "stopId": 85, "stopOrder": 0, "distanceFromPrevMeters": 0, "timeFromPrevSeconds": 0}, {"routeId": 40, "stopId": 180, "stopOrder": 1, "distanceFromPrevMeters": 91, "timeFromPrevSeconds": 60}, {"routeId": 40, "stopId": 305, "stopOrder": 2, "distanceFromPrevMeters": 9910, "timeFromPrevSeconds": 1982}, {"routeId": 40, "stopId": 327, "stopOrder": 3, "distanceFromPrevMeters": 10954, "timeFromPrevSeconds": 2190}, {"routeId": 40, "stopId": 227, "stopOrder": 4, "distanceFromPrevMeters": 6964, "timeFromPrevSeconds": 1392}, {"routeId": 40, "stopId": 14, "stopOrder": 5, "distanceFromPrevMeters": 7449, "timeFromPrevSeconds": 1489}, {"routeId": 40, "stopId": 37, "stopOrder": 6, "distanceFromPrevMeters": 4466, "timeFromPrevSeconds": 893}, {"routeId": 41, "stopId": 274, "stopOrder": 0, "distanceFromPrevMeters": 0, "timeFromPrevSeconds": 0}, {"routeId": 41, "stopId": 155, "stopOrder": 1, "distanceFromPrevMeters": 84, "timeFromPrevSeconds": 60}, {"routeId": 41, "stopId": 10, "stopOrder": 2, "distanceFromPrevMeters": 5491, "timeFromPrevSeconds": 1098}, {"routeId": 41, "stopId": 251, "stopOrder": 3, "distanceFromPrevMeters": 367, "timeFromPrevSeconds": 73}, {"routeId": 41, "stopId": 108, "stopOrder": 4, "distanceFromPrevMeters": 71, "timeFromPrevSeconds": 60}, {"routeId": 41, "stopId": 204, "stopOrder": 5, "distanceFromPrevMeters": 3626, "timeFromPrevSeconds": 725}, {"routeId": 41, "stopId": 328, "stopOrder": 6, "distanceFromPrevMeters": 240, "timeFromPrevSeconds": 60}, {"routeId": 42, "stopId": 58, "stopOrder": 0, "distanceFromPrevMeters": 0, "timeFromPrevSeconds": 0}, {"routeId": 42, "stopId": 59, "stopOrder": 1, "distanceFromPrevMeters": 28, "timeFromPrevSeconds": 60}, {"routeId": 42, "stopId": 131, "stopOrder": 2, "distanceFromPrevMeters": 92, "timeFromPrevSeconds": 60}, {"routeId": 42, "stopId": 372, "stopOrder": 3, "distanceFromPrevMeters": 3042, "timeFromPrevSeconds": 608}, {"routeId": 42, "stopId": 373, "stopOrder": 4, "distanceFromPrevMeters": 17, "timeFromPrevSeconds": 60}, {"routeId": 42, "stopId": 161, "stopOrder": 5, "distanceFromPrevMeters": 1088, "timeFromPrevSeconds": 217}, {"routeId": 42, "stopId": 323, "stopOrder": 6, "distanceFromPrevMeters": 4002, "timeFromPrevSeconds": 800}, {"routeId": 43, "stopId": 323, "stopOrder": 0, "distanceFromPrevMeters": 0, "timeFromPrevSeconds": 0}, {"routeId": 43, "stopId": 322, "stopOrder": 1, "distanceFromPrevMeters": 36, "timeFromPrevSeconds": 60}, {"routeId": 43, "stopId": 278, "stopOrder": 2, "distanceFromPrevMeters": 6109, "timeFromPrevSeconds": 1221}, {"routeId": 43, "stopId": 297, "stopOrder": 3, "distanceFromPrevMeters": 5880, "timeFromPrevSeconds": 1176}, {"routeId": 43, "stopId": 232, "stopOrder": 4, "distanceFromPrevMeters": 2534, "timeFromPrevSeconds": 506}, {"routeId": 43, "stopId": 82, "stopOrder": 5, "distanceFromPrevMeters": 2345, "timeFromPrevSeconds": 469}, {"routeId": 43, "stopId": 17, "stopOrder": 6, "distanceFromPrevMeters": 3250, "timeFromPrevSeconds": 650}, {"routeId": 44, "stopId": 255, "stopOrder": 0, "distanceFromPrevMeters": 0, "timeFromPrevSeconds": 0}, {"routeId": 44, "stopId": 137, "stopOrder": 1, "distanceFromPrevMeters": 342, "timeFromPrevSeconds": 68}, {"routeId": 44, "stopId": 78, "stopOrder": 2, "distanceFromPrevMeters": 6200, "timeFromPrevSeconds": 1240}, {"routeId": 44, "stopId": 206, "stopOrder": 3, "distanceFromPrevMeters": 5970, "timeFromPrevSeconds": 1194}, {"routeId": 44, "stopId": 41, "stopOrder": 4, "distanceFromPrevMeters": 578, "timeFromPrevSeconds": 115}, {"routeId": 44, "stopId": 153, "stopOrder": 5, "distanceFromPrevMeters": 1338, "timeFromPrevSeconds": 267}, {"routeId": 44, "stopId": 261, "stopOrder": 6, "distanceFromPrevMeters": 2549, "timeFromPrevSeconds": 509}, {"routeId": 45, "stopId": 276, "stopOrder": 0, "distanceFromPrevMeters": 0, "timeFromPrevSeconds": 0}, {"routeId": 45, "stopId": 374, "stopOrder": 1, "distanceFromPrevMeters": 151, "timeFromPrevSeconds": 60}, {"routeId": 45, "stopId": 277, "stopOrder": 2, "distanceFromPrevMeters": 158, "timeFromPrevSeconds": 60}, {"routeId": 45, "stopId": 306, "stopOrder": 3, "distanceFromPrevMeters": 154, "timeFromPrevSeconds": 60}, {"routeId": 45, "stopId": 216, "stopOrder": 4, "distanceFromPrevMeters": 4122, "timeFromPrevSeconds": 824}, {"routeId": 45, "stopId": 64, "stopOrder": 5, "distanceFromPrevMeters": 3407, "timeFromPrevSeconds": 681}, {"routeId": 45, "stopId": 6, "stopOrder": 6, "distanceFromPrevMeters": 3429, "timeFromPrevSeconds": 685}, {"routeId": 46, "stopId": 306, "stopOrder": 0, "distanceFromPrevMeters": 0, "timeFromPrevSeconds": 0}, {"routeId": 46, "stopId": 233, "stopOrder": 1, "distanceFromPrevMeters": 217, "timeFromPrevSeconds": 60}, {"routeId": 46, "stopId": 239, "stopOrder": 2, "distanceFromPrevMeters": 2873, "timeFromPrevSeconds": 574}, {"routeId": 46, "stopId": 142, "stopOrder": 3, "distanceFromPrevMeters": 1097, "timeFromPrevSeconds": 219}, {"routeId": 46, "stopId": 150, "stopOrder": 4, "distanceFromPrevMeters": 3520, "timeFromPrevSeconds": 704}, {"routeId": 46, "stopId": 147, "stopOrder": 5, "distanceFromPrevMeters": 27, "timeFromPrevSeconds": 60}, {"routeId": 46, "stopId": 339, "stopOrder": 6, "distanceFromPrevMeters": 1599, "timeFromPrevSeconds": 319}, {"routeId": 47, "stopId": 339, "stopOrder": 0, "distanceFromPrevMeters": 0, "timeFromPrevSeconds": 0}, {"routeId": 47, "stopId": 338, "stopOrder": 1, "distanceFromPrevMeters": 7, "timeFromPrevSeconds": 60}, {"routeId": 47, "stopId": 359, "stopOrder": 2, "distanceFromPrevMeters": 2763, "timeFromPrevSeconds": 552}, {"routeId": 47, "stopId": 351, "stopOrder": 3, "distanceFromPrevMeters": 47, "timeFromPrevSeconds": 60}, {"routeId": 47, "stopId": 21, "stopOrder": 4, "distanceFromPrevMeters": 1163, "timeFromPrevSeconds": 232}, {"routeId": 47, "stopId": 381, "stopOrder": 5, "distanceFromPrevMeters": 1129, "timeFromPrevSeconds": 225}, {"routeId": 47, "stopId": 263, "stopOrder": 6, "distanceFromPrevMeters": 1802, "timeFromPrevSeconds": 360}, {"routeId": 48, "stopId": 361, "stopOrder": 0, "distanceFromPrevMeters": 0, "timeFromPrevSeconds": 0}, {"routeId": 48, "stopId": 244, "stopOrder": 1, "distanceFromPrevMeters": 133, "timeFromPrevSeconds": 60}, {"routeId": 48, "stopId": 304, "stopOrder": 2, "distanceFromPrevMeters": 5671, "timeFromPrevSeconds": 1134}, {"routeId": 48, "stopId": 4, "stopOrder": 3, "distanceFromPrevMeters": 5074, "timeFromPrevSeconds": 1014}, {"routeId": 48, "stopId": 72, "stopOrder": 4, "distanceFromPrevMeters": 1844, "timeFromPrevSeconds": 368}, {"routeId": 48, "stopId": 191, "stopOrder": 5, "distanceFromPrevMeters": 606, "timeFromPrevSeconds": 121}, {"routeId": 48, "stopId": 51, "stopOrder": 6, "distanceFromPrevMeters": 2838, "timeFromPrevSeconds": 567}, {"routeId": 49, "stopId": 191, "stopOrder": 0, "distanceFromPrevMeters": 0, "timeFromPrevSeconds": 0}, {"routeId": 49, "stopId": 190, "stopOrder": 1, "distanceFromPrevMeters": 25, "timeFromPrevSeconds": 60}, {"routeId": 49, "stopId": 331, "stopOrder": 2, "distanceFromPrevMeters": 2086, "timeFromPrevSeconds": 417}, {"routeId": 49, "stopId": 330, "stopOrder": 3, "distanceFromPrevMeters": 25, "timeFromPrevSeconds": 60}, {"routeId": 49, "stopId": 125, "stopOrder": 4, "distanceFromPrevMeters": 3798, "timeFromPrevSeconds": 759}, {"routeId": 49, "stopId": 182, "stopOrder": 5, "distanceFromPrevMeters": 4442, "timeFromPrevSeconds": 888}, {"routeId": 49, "stopId": 315, "stopOrder": 6, "distanceFromPrevMeters": 4765, "timeFromPrevSeconds": 953}, {"routeId": 50, "stopId": 30, "stopOrder": 0, "distanceFromPrevMeters": 0, "timeFromPrevSeconds": 0}, {"routeId": 50, "stopId": 31, "stopOrder": 1, "distanceFromPrevMeters": 7, "timeFromPrevSeconds": 60}, {"routeId": 50, "stopId": 265, "stopOrder": 2, "distanceFromPrevMeters": 717, "timeFromPrevSeconds": 143}, {"routeId": 50, "stopId": 293, "stopOrder": 3, "distanceFromPrevMeters": 207, "timeFromPrevSeconds": 60}, {"routeId": 50, "stopId": 167, "stopOrder": 4, "distanceFromPrevMeters": 1259, "timeFromPrevSeconds": 251}, {"routeId": 50, "stopId": 314, "stopOrder": 5, "distanceFromPrevMeters": 1201, "timeFromPrevSeconds": 240}, {"routeId": 50, "stopId": 360, "stopOrder": 6, "distanceFromPrevMeters": 1244, "timeFromPrevSeconds": 248}, {"routeId": 51, "stopId": 170, "stopOrder": 0, "distanceFromPrevMeters": 0, "timeFromPrevSeconds": 0}, {"routeId": 51, "stopId": 172, "stopOrder": 1, "distanceFromPrevMeters": 78, "timeFromPrevSeconds": 60}, {"routeId": 51, "stopId": 5, "stopOrder": 2, "distanceFromPrevMeters": 299, "timeFromPrevSeconds": 60}, {"routeId": 51, "stopId": 93, "stopOrder": 3, "distanceFromPrevMeters": 551, "timeFromPrevSeconds": 110}, {"routeId": 51, "stopId": 171, "stopOrder": 4, "distanceFromPrevMeters": 868, "timeFromPrevSeconds": 173}, {"routeId": 51, "stopId": 242, "stopOrder": 5, "distanceFromPrevMeters": 3056, "timeFromPrevSeconds": 611}, {"routeId": 51, "stopId": 266, "stopOrder": 6, "distanceFromPrevMeters": 3941, "timeFromPrevSeconds": 788}, {"routeId": 52, "stopId": 143, "stopOrder": 0, "distanceFromPrevMeters": 0, "timeFromPrevSeconds": 0}, {"routeId": 52, "stopId": 144, "stopOrder": 1, "distanceFromPrevMeters": 29, "timeFromPrevSeconds": 60}, {"routeId": 52, "stopId": 76, "stopOrder": 2, "distanceFromPrevMeters": 2924, "timeFromPrevSeconds": 584}, {"routeId": 52, "stopId": 118, "stopOrder": 3, "distanceFromPrevMeters": 3648, "timeFromPrevSeconds": 729}, {"routeId": 52, "stopId": 145, "stopOrder": 4, "distanceFromPrevMeters": 4174, "timeFromPrevSeconds": 834}, {"routeId": 52, "stopId": 119, "stopOrder": 5, "distanceFromPrevMeters": 4208, "timeFromPrevSeconds": 841}, {"routeId": 52, "stopId": 196, "stopOrder": 6, "distanceFromPrevMeters": 936, "timeFromPrevSeconds": 187}, {"routeId": 53, "stopId": 146, "stopOrder": 0, "distanceFromPrevMeters": 0, "timeFromPrevSeconds": 0}, {"routeId": 53, "stopId": 122, "stopOrder": 1, "distanceFromPrevMeters": 309, "timeFromPrevSeconds": 61}, {"routeId": 53, "stopId": 195, "stopOrder": 2, "distanceFromPrevMeters": 4512, "timeFromPrevSeconds": 902}, {"routeId": 53, "stopId": 100, "stopOrder": 3, "distanceFromPrevMeters": 4109, "timeFromPrevSeconds": 821}, {"routeId": 53, "stopId": 71, "stopOrder": 4, "distanceFromPrevMeters": 2964, "timeFromPrevSeconds": 592}, {"routeId": 53, "stopId": 27, "stopOrder": 5, "distanceFromPrevMeters": 3223, "timeFromPrevSeconds": 644}, {"routeId": 53, "stopId": 240, "stopOrder": 6, "distanceFromPrevMeters": 3552, "timeFromPrevSeconds": 710}, {"routeId": 54, "stopId": 50, "stopOrder": 0, "distanceFromPrevMeters": 0, "timeFromPrevSeconds": 0}, {"routeId": 54, "stopId": 49, "stopOrder": 1, "distanceFromPrevMeters": 142, "timeFromPrevSeconds": 60}, {"routeId": 54, "stopId": 2, "stopOrder": 2, "distanceFromPrevMeters": 302, "timeFromPrevSeconds": 60}, {"routeId": 54, "stopId": 382, "stopOrder": 3, "distanceFromPrevMeters": 2347, "timeFromPrevSeconds": 469}, {"routeId": 54, "stopId": 141, "stopOrder": 4, "distanceFromPrevMeters": 997, "timeFromPrevSeconds": 199}, {"routeId": 54, "stopId": 313, "stopOrder": 5, "distanceFromPrevMeters": 2068, "timeFromPrevSeconds": 413}, {"routeId": 54, "stopId": 24, "stopOrder": 6, "distanceFromPrevMeters": 743, "timeFromPrevSeconds": 148}, {"routeId": 55, "stopId": 24, "stopOrder": 0, "distanceFromPrevMeters": 0, "timeFromPrevSeconds": 0}, {"routeId": 55, "stopId": 240, "stopOrder": 1, "distanceFromPrevMeters": 1276, "timeFromPrevSeconds": 255}, {"routeId": 55, "stopId": 195, "stopOrder": 2, "distanceFromPrevMeters": 1025, "timeFromPrevSeconds": 205}, {"routeId": 55, "stopId": 170, "stopOrder": 3, "distanceFromPrevMeters": 726, "timeFromPrevSeconds": 145}, {"routeId": 55, "stopId": 315, "stopOrder": 4, "distanceFromPrevMeters": 924, "timeFromPrevSeconds": 184}, {"routeId": 55, "stopId": 304, "stopOrder": 5, "distanceFromPrevMeters": 4649, "timeFromPrevSeconds": 929}, {"routeId": 55, "stopId": 339, "stopOrder": 6, "distanceFromPrevMeters": 3953, "timeFromPrevSeconds": 790}, {"routeId": 55, "stopId": 216, "stopOrder": 7, "distanceFromPrevMeters": 466, "timeFromPrevSeconds": 93}, {"routeId": 55, "stopId": 40, "stopOrder": 8, "distanceFromPrevMeters": 3641, "timeFromPrevSeconds": 728}, {"routeId": 55, "stopId": 160, "stopOrder": 9, "distanceFromPrevMeters": 908, "timeFromPrevSeconds": 181}, {"routeId": 55, "stopId": 13, "stopOrder": 10, "distanceFromPrevMeters": 3915, "timeFromPrevSeconds": 783}, {"routeId": 55, "stopId": 10, "stopOrder": 11, "distanceFromPrevMeters": 415, "timeFromPrevSeconds": 83}, {"routeId": 55, "stopId": 327, "stopOrder": 12, "distanceFromPrevMeters": 6643, "timeFromPrevSeconds": 1328}, {"routeId": 55, "stopId": 184, "stopOrder": 13, "distanceFromPrevMeters": 9980, "timeFromPrevSeconds": 1996}, {"routeId": 55, "stopId": 61, "stopOrder": 14, "distanceFromPrevMeters": 10124, "timeFromPrevSeconds": 2024}, {"routeId": 55, "stopId": 152, "stopOrder": 15, "distanceFromPrevMeters": 7638, "timeFromPrevSeconds": 1527}, {"routeId": 55, "stopId": 309, "stopOrder": 16, "distanceFromPrevMeters": 4813, "timeFromPrevSeconds": 962}, {"routeId": 55, "stopId": 376, "stopOrder": 17, "distanceFromPrevMeters": 802, "timeFromPrevSeconds": 160}, {"routeId": 55, "stopId": 33, "stopOrder": 18, "distanceFromPrevMeters": 3414, "timeFromPrevSeconds": 682}, {"routeId": 55, "stopId": 187, "stopOrder": 19, "distanceFromPrevMeters": 1923, "timeFromPrevSeconds": 384}, {"routeId": 56, "stopId": 254, "stopOrder": 0, "distanceFromPrevMeters": 0, "timeFromPrevSeconds": 0}, {"routeId": 56, "stopId": 378, "stopOrder": 1, "distanceFromPrevMeters": 6774, "timeFromPrevSeconds": 1354}, {"routeId": 56, "stopId": 180, "stopOrder": 2, "distanceFromPrevMeters": 5423, "timeFromPrevSeconds": 1084}, {"routeId": 56, "stopId": 115, "stopOrder": 3, "distanceFromPrevMeters": 3218, "timeFromPrevSeconds": 643}, {"routeId": 56, "stopId": 355, "stopOrder": 4, "distanceFromPrevMeters": 2409, "timeFromPrevSeconds": 481}, {"routeId": 56, "stopId": 353, "stopOrder": 5, "distanceFromPrevMeters": 3248, "timeFromPrevSeconds": 649}, {"routeId": 56, "stopId": 124, "stopOrder": 6, "distanceFromPrevMeters": 6859, "timeFromPrevSeconds": 1371}, {"routeId": 56, "stopId": 362, "stopOrder": 7, "distanceFromPrevMeters": 653, "timeFromPrevSeconds": 130}, {"routeId": 56, "stopId": 365, "stopOrder": 8, "distanceFromPrevMeters": 6307, "timeFromPrevSeconds": 1261}, {"routeId": 56, "stopId": 292, "stopOrder": 9, "distanceFromPrevMeters": 6589, "timeFromPrevSeconds": 1317}, {"routeId": 56, "stopId": 6, "stopOrder": 10, "distanceFromPrevMeters": 976, "timeFromPrevSeconds": 195}, {"routeId": 56, "stopId": 317, "stopOrder": 11, "distanceFromPrevMeters": 1746, "timeFromPrevSeconds": 349}, {"routeId": 56, "stopId": 226, "stopOrder": 12, "distanceFromPrevMeters": 4172, "timeFromPrevSeconds": 834}, {"routeId": 56, "stopId": 195, "stopOrder": 13, "distanceFromPrevMeters": 4040, "timeFromPrevSeconds": 808}, {"routeId": 56, "stopId": 358, "stopOrder": 14, "distanceFromPrevMeters": 481, "timeFromPrevSeconds": 96}, {"routeId": 56, "stopId": 54, "stopOrder": 15, "distanceFromPrevMeters": 9671, "timeFromPrevSeconds": 1934}, {"routeId": 56, "stopId": 186, "stopOrder": 16, "distanceFromPrevMeters": 6828, "timeFromPrevSeconds": 1365}, {"routeId": 56, "stopId": 241, "stopOrder": 17, "distanceFromPrevMeters": 2254, "timeFromPrevSeconds": 450}, {"routeId": 56, "stopId": 138, "stopOrder": 18, "distanceFromPrevMeters": 759, "timeFromPrevSeconds": 151}, {"routeId": 56, "stopId": 204, "stopOrder": 19, "distanceFromPrevMeters": 2402, "timeFromPrevSeconds": 480}]}